[{"area":"Cleveland / Akron / Canton","city":"Pepper Pike","cuisine":"Steak","objectID":"116272","image":"https://www.opentable.com/img/restimages/116272.jpg","_geoloc":{"lat":41.462926,"lng":-81.470595},"name":"XO Prime Steaks Pepper Pike","neighborhood":"Pepper Pike","paymentOptions":["AMEX","Discover","MasterCard","Visa"],"prices":"$31 to $50","rating":4.2,"reviews":204},{"area":"Cleveland / Akron / Canton","city":"Medina","cuisine":"Sushi","objectID":"138901","image":"https://www.opentable.com/img/restimages/138901.jpg","_geoloc":{"lat":41.153419,"lng":-81.864608},"name":"Twiisted Bar & Grill","neighborhood":"Medina","paymentOptions":["AMEX","Discover","MasterCard","Visa"],"prices":"$30 and under","rating":4.3,"reviews":75},{"area":"Cleveland / Akron / Canton","city":"Bath","cuisine":"Italian","objectID":"96892","image":"https://www.opentable.com/img/restimages/96892.jpg","_geoloc":{"lat":41.187298,"lng":-81.635277},"name":"Ken Stewart's Tre Belle","neighborhood":"Bath","paymentOptions":["AMEX","Discover","MasterCard","Visa"],"prices":"$30 and under","rating":4.3,"reviews":161},{"area":"Cleveland / Akron / Canton","city":"Boardman","cuisine":"American","objectID":"108532","image":"https://www.opentable.com/img/restimages/108532.jpg","_geoloc":{"lat":40.995733,"lng":-80.64484},"name":"Culinary Arts Restaurant","neighborhood":"Boardman","paymentOptions":["AMEX","Discover","MasterCard","Visa"],"prices":"$30 and under","rating":4.5,"reviews":159},{"area":"Cleveland / Akron / Canton","city":"Cleveland","cuisine":"Sushi","objectID":"25840","image":"https://www.opentable.com/img/restimages/25840.jpg","_geoloc":{"lat":41.483445,"lng":-81.591102},"name":"SASA","neighborhood":"Shaker Heights","paymentOptions":["AMEX","Discover","MasterCard","Visa"],"prices":"$30 and under","rating":4.5,"reviews":332},{"area":"Cleveland / Akron / Canton","city":"Akron","cuisine":"Italian","objectID":"136147","image":"https://www.opentable.com/img/restimages/136147.jpg","_geoloc":{"lat":41.072751,"lng":-81.524823},"name":"Spaghetti Warehouse - Akron","neighborhood":"Akron","paymentOptions":["AMEX","Discover","MasterCard","Visa"],"prices":"$30 and under","rating":3.9,"reviews":55},{"area":"Cleveland / Akron / Canton","city":"Sandusky","cuisine":"Seafood","objectID":"106828","image":"https://www.opentable.com/img/restimages/106828.jpg","_geoloc":{"lat":41.477769,"lng":-82.679062},"name":"Bay Harbor","neighborhood":"Sandusky","paymentOptions":["AMEX","Discover","MasterCard","Visa"],"prices":"$31 to $50","rating":4.5,"reviews":181},{"area":"Cleveland / Akron / Canton","city":"Cleveland","cuisine":"Italian","objectID":"110065","image":"https://www.opentable.com/img/restimages/110065.jpg","_geoloc":{"lat":41.500809,"lng":-81.703332},"name":"LAGO Cucina Enotecca and Birreria","neighborhood":"The Flats","paymentOptions":["AMEX","Discover","MasterCard","Visa"],"prices":"$31 to $50","rating":4.4,"reviews":215},{"area":"Cleveland / Akron / Canton","city":"Akron","cuisine":"Italian","objectID":"90433","image":"https://www.opentable.com/img/restimages/90433.jpg","_geoloc":{"lat":41.101381,"lng":-81.586795},"name":"D'Agnese's at White Pond","neighborhood":"Akron","paymentOptions":["AMEX","Discover","MasterCard","Visa"],"prices":"$30 and under","rating":4.4,"reviews":375},{"area":"Cleveland / Akron / Canton","city":"Hudson","cuisine":"Southern","objectID":"117703","image":"https://www.opentable.com/img/restimages/117703.jpg","_geoloc":{"lat":41.242705,"lng":-81.440704},"name":"Peachtree Southern Kitchen and Cocktails","neighborhood":"Hudson","paymentOptions":["AMEX","Discover","MasterCard","Visa"],"prices":"$30 and under","rating":4.1,"reviews":173},{"area":"Cleveland / Akron / Canton","city":"Mentor","cuisine":"American","objectID":"107638","image":"https://www.opentable.com/img/restimages/107638.jpg","_geoloc":{"lat":41.666241,"lng":-81.338769},"name":"Skye Bistro","neighborhood":"Mentor","paymentOptions":["AMEX","Discover","MasterCard","Visa"],"prices":"$30 and under","rating":4.5,"reviews":127},{"area":"Cleveland / Akron / Canton","city":"Sandusky","cuisine":"American","objectID":"107134","image":"https://www.opentable.com/img/restimages/107134.jpg","_geoloc":{"lat":41.45646,"lng":-82.712392},"name":"Crush - Sandusky","neighborhood":"Sandusky","paymentOptions":["AMEX","Discover","MasterCard","Visa"],"prices":"$30 and under","rating":4.7,"reviews":139},{"area":"Cleveland / Akron / Canton","city":"Cleveland Heights","cuisine":"American","objectID":"112477","image":"https://www.opentable.com/img/restimages/112477.jpg","_geoloc":{"lat":41.501006,"lng":-81.59614},"name":"Nighttown","neighborhood":"Cleveland Heights","paymentOptions":["AMEX","Discover","MasterCard","Visa"],"prices":"$30 and under","rating":4.2,"reviews":241},{"area":"Cleveland / Akron / Canton","city":"Cleveland","cuisine":"American","objectID":"103036","image":"https://www.opentable.com/img/restimages/103036.jpg","_geoloc":{"lat":41.501782,"lng":-81.619722},"name":"North Coast Cafe","neighborhood":"Cleveland East","paymentOptions":["AMEX","Discover","MasterCard","Visa"],"prices":"$30 and under","rating":4.8,"reviews":24},{"area":"Cleveland / Akron / Canton","city":"Akron","cuisine":"American","objectID":"90835","image":"https://www.opentable.com/img/restimages/90835.jpg","_geoloc":{"lat":41.088834,"lng":-81.515739},"name":"D.B.A.","neighborhood":"Akron","paymentOptions":["AMEX","Discover","MasterCard","Visa"],"prices":"$30 and under","rating":4.5,"reviews":607},{"area":"Cleveland / Akron / Canton","city":"Cleveland","cuisine":"Global, International","objectID":"29239","image":"https://www.opentable.com/img/restimages/29239.jpg","_geoloc":{"lat":41.482446,"lng":-81.689343},"name":"Parallax Restaurant & Lounge","neighborhood":"Tremont","paymentOptions":["AMEX","Discover","MasterCard","Visa"],"prices":"$30 and under","rating":4.5,"reviews":968},{"area":"Cleveland / Akron / Canton","city":"Cleveland","cuisine":"Contemporary American","objectID":"4465","image":"https://www.opentable.com/img/restimages/4465.jpg","_geoloc":{"lat":41.492507,"lng":-81.779029},"name":"Pier W","neighborhood":"Lakewood","paymentOptions":["AMEX","Discover","MasterCard","Visa"],"prices":"$31 to $50","rating":4.7,"reviews":3049},{"area":"Cleveland / Akron / Canton","city":"Tremont","cuisine":"American","objectID":"37129","image":"https://www.opentable.com/img/restimages/37129.jpg","_geoloc":{"lat":41.48161,"lng":-81.686331},"name":"DANTE","neighborhood":"Tremont","paymentOptions":["AMEX","Discover","MasterCard","Visa"],"prices":"$31 to $50","rating":4.5,"reviews":1477},{"area":"Cleveland / Akron / Canton","city":"Beachwood","cuisine":"Sushi","objectID":"86371","image":"https://www.opentable.com/img/restimages/86371.jpg","_geoloc":{"lat":41.463769,"lng":-81.514266},"name":"Shuhei","neighborhood":"Beachwood","paymentOptions":["MasterCard","Visa"],"prices":"$30 and under","rating":4.6,"reviews":147},{"area":"Cleveland / Akron / Canton","city":"Akron","cuisine":"American","objectID":"93931","image":"https://www.opentable.com/img/restimages/93931.jpg","_geoloc":{"lat":41.085025,"lng":-81.515763},"name":"Crave - Akron","neighborhood":"Akron","paymentOptions":["AMEX","Discover","MasterCard","Visa"],"prices":"$30 and under","rating":4.4,"reviews":518},{"area":"Cleveland / Akron / Canton","city":"Hudson","cuisine":"Contemporary American","objectID":"51502","image":"https://www.opentable.com/img/restimages/51502.jpg","_geoloc":{"lat":41.241497,"lng":-81.442767},"name":"One Red Door","neighborhood":"Hudson","paymentOptions":["AMEX","Discover","MasterCard","Visa"],"prices":"$30 and under","rating":4.4,"reviews":649},{"area":"Cleveland / Akron / Canton","city":"Akron","cuisine":"American","objectID":"106723","image":"https://www.opentable.com/img/restimages/106723.jpg","_geoloc":{"lat":41.084979,"lng":-81.516162},"name":"3 Point","neighborhood":"Akron","paymentOptions":["AMEX","Discover","MasterCard","Visa"],"prices":"$30 and under","rating":4.4,"reviews":183},{"area":"Coastal North Carolina","city":"New Bern","cuisine":"Contemporary American","objectID":"90436","image":"https://www.opentable.com/img/restimages/90436.jpg","_geoloc":{"lat":35.10643,"lng":-77.03834},"name":"247 Craven","neighborhood":"New Bern","paymentOptions":["AMEX","Discover","MasterCard","Visa"],"prices":"$30 and under","rating":4.4,"reviews":290},{"area":"Coastal North Carolina","city":"Wilmington","cuisine":"Asian","objectID":"7551","image":"https://www.opentable.com/img/restimages/7551.jpg","_geoloc":{"lat":34.234789,"lng":-77.948579},"name":"Yo Sake Downtown Sushi Lounge","neighborhood":"Wilmington","paymentOptions":["AMEX","Discover","MasterCard","Visa"],"prices":"$30 and under","rating":4.5,"reviews":149},{"area":"Coastal North Carolina","city":"Wilmington","cuisine":"Tapas / Small Plates","objectID":"7581","image":"https://www.opentable.com/img/restimages/7581.jpg","_geoloc":{"lat":34.235495,"lng":-77.94865},"name":"Circa 1922","neighborhood":"Wilmington","paymentOptions":["AMEX","Discover","MasterCard","Visa"],"prices":"$30 and under","rating":4.5,"reviews":965},{"area":"Columbus","city":"Gahanna","cuisine":"American","objectID":"148297","image":"https://www.opentable.com/img/restimages/148297.jpg","_geoloc":{"lat":40.053247,"lng":-82.842592},"name":"The Barn","neighborhood":"Gahanna","paymentOptions":["AMEX","Discover","MasterCard","Visa"],"prices":"$31 to $50","rating":4.6,"reviews":831},{"area":"Columbus","city":"Columbus","cuisine":"American","objectID":"103939","image":"https://www.opentable.com/img/restimages/103939.jpg","_geoloc":{"lat":40.007465,"lng":-83.056883},"name":"The Wine Bistro - Upper Arlington","neighborhood":"Upper Arlington","paymentOptions":["AMEX","Discover","MasterCard","Visa"],"prices":"$30 and under","rating":4.5,"reviews":158},{"area":"Columbus","city":"Columbus","cuisine":"Steakhouse","objectID":"18712","image":"https://www.opentable.com/img/restimages/18712.jpg","_geoloc":{"lat":40.141542,"lng":-82.977339},"name":"Eddie Merlot's - Columbus","neighborhood":"Polaris","paymentOptions":["AMEX","Discover","MasterCard","Visa"],"prices":"$50 and over","rating":4.6,"reviews":2210},{"area":"Columbus","city":"Columbus","cuisine":"Italian","objectID":"26842","image":"https://www.opentable.com/img/restimages/26842.jpg","_geoloc":{"lat":39.963686,"lng":-82.998929},"name":"Due Amici","neighborhood":"Columbus","paymentOptions":["AMEX","Discover","MasterCard","Visa"],"prices":"$30 and under","rating":4.3,"reviews":1071},{"area":"Columbus","city":"Westerville","cuisine":"Italian","objectID":"147982","image":"https://www.opentable.com/img/restimages/147982.jpg","_geoloc":{"lat":40.15369,"lng":-82.921292},"name":"Giammarco's","neighborhood":"Westerville","paymentOptions":["AMEX","Discover","MasterCard","Visa"],"prices":"$30 and under","rating":4.4,"reviews":119},{"area":"Columbus","city":"Columbus","cuisine":"Italian","objectID":"4148","image":"https://www.opentable.com/img/restimages/4148.jpg","_geoloc":{"lat":39.9872,"lng":-83.0445},"name":"Trattoria Roma","neighborhood":"Grandview Heights","paymentOptions":["AMEX","Discover","MasterCard","Visa"],"prices":"$30 and under","rating":4.3,"reviews":525},{"area":"Columbus","city":"Columbus","cuisine":"Italian","objectID":"10141","image":"https://www.opentable.com/img/restimages/10141.jpg","_geoloc":{"lat":39.977809,"lng":-83.010476},"name":"Basi Italia","neighborhood":"Victorian Village","paymentOptions":["AMEX","Discover","MasterCard","Visa"],"prices":"$31 to $50","rating":4.7,"reviews":1382},{"area":"Columbus","city":"Columbus","cuisine":"Contemporary American","objectID":"110464","image":"https://www.opentable.com/img/restimages/110464.jpg","_geoloc":{"lat":40.117271,"lng":-83.013285},"name":"J. Alexander's - Columbus","neighborhood":"Worthington","paymentOptions":["AMEX","Discover","MasterCard","Visa"],"prices":"$30 and under","rating":4.5,"reviews":512},{"area":"Columbus","city":"Columbus","cuisine":"American","objectID":"23113","image":"https://www.opentable.com/img/restimages/23113.jpg","_geoloc":{"lat":40.141211,"lng":-82.968635},"name":"Polaris Grill","neighborhood":"Polaris","paymentOptions":["AMEX","Discover","MasterCard","Visa"],"prices":"$30 and under","rating":4.5,"reviews":1283},{"area":"Columbus","city":"Marysville","cuisine":"Contemporary American","objectID":"148096","image":"https://www.opentable.com/img/restimages/148096.jpg","_geoloc":{"lat":40.236685,"lng":-83.36356},"name":"Hinkley's","neighborhood":"Marysville","paymentOptions":["AMEX","Discover","MasterCard","Visa"],"prices":"$30 and under","rating":4.5,"reviews":126},{"area":"Columbus","city":"Columbus","cuisine":"Contemporary American","objectID":"3923","image":"https://www.opentable.com/img/restimages/3923.jpg","_geoloc":{"lat":40.0868,"lng":-83.0182},"name":"The Worthington Inn","neighborhood":"Worthington","paymentOptions":["AMEX","Discover","MasterCard","Visa"],"prices":"$30 and under","rating":4.4,"reviews":869},{"area":"Columbus","city":"Columbus","cuisine":"Contemporary American","objectID":"11704","image":"https://www.opentable.com/img/restimages/11704.jpg","_geoloc":{"lat":39.950779,"lng":-82.993625},"name":"Lindey's","neighborhood":"German Village","paymentOptions":["AMEX","Discover","MasterCard","Visa"],"prices":"$31 to $50","rating":4.7,"reviews":2694},{"area":"Columbus","city":"Columbus","cuisine":"Contemporary American","objectID":"13966","image":"https://www.opentable.com/img/restimages/13966.jpg","_geoloc":{"lat":39.95471,"lng":-83.005734},"name":"M Restaurant","neighborhood":"Columbus","paymentOptions":["AMEX","Discover","MasterCard","Visa"],"prices":"$31 to $50","rating":4.5,"reviews":1739},{"area":"Columbus","city":"Columbus","cuisine":"American","objectID":"91624","image":"https://www.opentable.com/img/restimages/91624.jpg","_geoloc":{"lat":39.969592,"lng":-83.002095},"name":"Gallerie Bar & Bistro","neighborhood":"Columbus","paymentOptions":["AMEX","Discover","MasterCard","Visa"],"prices":"$30 and under","rating":4.4,"reviews":283},{"area":"Columbus","city":"Logan","cuisine":"Contemporary American","objectID":"140680","image":"https://www.opentable.com/img/restimages/140680.jpg","_geoloc":{"lat":39.424712,"lng":-82.525425},"name":"The Inn at Cedar Falls","neighborhood":"Logan","paymentOptions":["AMEX","MasterCard","Visa"],"prices":"$31 to $50","rating":4.2,"reviews":91},{"area":"Columbus","city":"Dublin","cuisine":"Contemporary American","objectID":"97042","image":"https://www.opentable.com/img/restimages/97042.jpg","_geoloc":{"lat":40.101393,"lng":-83.113881},"name":"Oscar's of Dublin","neighborhood":"Dublin","paymentOptions":["AMEX","Discover","MasterCard","Visa"],"prices":"$30 and under","rating":4.5,"reviews":385},{"area":"Columbus","city":"Dublin","cuisine":"Barbecue","objectID":"111703","image":"https://www.opentable.com/img/restimages/111703.jpg","_geoloc":{"lat":40.099559,"lng":-83.107886},"name":"Montgomery Inn - Columbus","neighborhood":"Dublin","paymentOptions":["AMEX","Discover","MasterCard","Visa"],"prices":"$30 and under","rating":4.2,"reviews":212},{"area":"Columbus","city":"Dublin","cuisine":"Asian","objectID":"110209","image":"https://www.opentable.com/img/restimages/110209.jpg","_geoloc":{"lat":40.093108,"lng":-83.0916},"name":"BD's Mongolian Grill – Dublin","neighborhood":"Dublin","paymentOptions":["AMEX","Discover","MasterCard","Visa"],"prices":"$30 and under","rating":4.3,"reviews":63},{"area":"Columbus","city":"Upper Arlington","cuisine":"American","objectID":"117997","image":"https://www.opentable.com/img/restimages/117997.jpg","_geoloc":{"lat":40.00714,"lng":-83.052257},"name":"Hudson 29","neighborhood":"Upper Arlington","paymentOptions":["AMEX","Discover","MasterCard","Visa"],"prices":"$31 to $50","rating":4.5,"reviews":872},{"area":"Columbus","city":"Columbus","cuisine":"Steakhouse","objectID":"12364","image":"https://www.opentable.com/img/restimages/12364.jpg","_geoloc":{"lat":39.956774,"lng":-82.921332},"name":"The Top Steak House","neighborhood":"Bexley","paymentOptions":["AMEX","Discover","MasterCard","Visa"],"prices":"$31 to $50","rating":4.5,"reviews":1802},{"area":"Columbus","city":"Columbus","cuisine":"American","objectID":"7367","image":"https://www.opentable.com/img/restimages/7367.jpg","_geoloc":{"lat":39.963596,"lng":-82.998212},"name":"Latitude 41","neighborhood":"Columbus","paymentOptions":["AMEX","Discover","MasterCard","Visa"],"prices":"$30 and under","rating":3.8,"reviews":679},{"area":"Columbus","city":"Columbus","cuisine":"Asian","objectID":"110188","image":"https://www.opentable.com/img/restimages/110188.jpg","_geoloc":{"lat":40.054409,"lng":-82.917455},"name":"BD's Mongolian Grill - Easton","neighborhood":"Easton","paymentOptions":["AMEX","Discover","MasterCard","Visa"],"prices":"$30 and under","rating":4.3,"reviews":74},{"area":"Columbus","city":"Columbus","cuisine":"Seafood","objectID":"5401","image":"https://www.opentable.com/img/restimages/5401.jpg","_geoloc":{"lat":39.986,"lng":-83.024},"name":"Columbus Fish Market - Grandview","neighborhood":"Grandview Heights","paymentOptions":["AMEX","Discover","MasterCard","Visa"],"prices":"$30 and under","rating":4.3,"reviews":2187},{"area":"Columbus","city":"Columbus","cuisine":"Brazilian Steakhouse","objectID":"95767","image":"https://www.opentable.com/img/restimages/95767.jpg","_geoloc":{"lat":40.04982,"lng":-82.91367},"name":"Texas de Brazil - Columbus","neighborhood":"Columbus","paymentOptions":["AMEX","Discover","MasterCard","Visa"],"prices":"$31 to $50","rating":4.5,"reviews":655},{"area":"Columbus","city":"Columbus","cuisine":"Spanish","objectID":"5325","image":"https://www.opentable.com/img/restimages/5325.jpg","_geoloc":{"lat":39.944,"lng":-82.99},"name":"Barcelona Restaurant & Bar","neighborhood":"German Village","paymentOptions":["AMEX","Discover","MasterCard","Visa"],"prices":"$31 to $50","rating":4.7,"reviews":1850},{"area":"Columbus","city":"Columbus","cuisine":"Contemporary American","objectID":"82828","image":"https://www.opentable.com/img/restimages/82828.jpg","_geoloc":{"lat":39.957982,"lng":-82.999844},"name":"De Novo","neighborhood":"Columbus","paymentOptions":["AMEX","Discover","MasterCard","Visa"],"prices":"$30 and under","rating":4.4,"reviews":512},{"area":"Columbus","city":"Columbus","cuisine":"Contemporary American","objectID":"113596","image":"https://www.opentable.com/img/restimages/113596.jpg","_geoloc":{"lat":40.054352,"lng":-82.915064},"name":"Cooper's Hawk Winery & Restaurant - Columbus","neighborhood":"Columbus","paymentOptions":["AMEX","Discover","MasterCard","Visa"],"prices":"$30 and under","rating":4.4,"reviews":1252},{"area":"Columbus","city":"Columbus","cuisine":"Steakhouse","objectID":"6654","image":"https://www.opentable.com/img/restimages/6654.jpg","_geoloc":{"lat":39.963505,"lng":-82.998194},"name":"Mitchell's Steakhouse - Columbus Downtown","neighborhood":"Columbus","paymentOptions":["AMEX","Discover","MasterCard","Visa"],"prices":"$31 to $50","rating":4.3,"reviews":1049},{"area":"Columbus","city":"Columbus","cuisine":"Contemporary American","objectID":"116098","image":"https://www.opentable.com/img/restimages/116098.jpg","_geoloc":{"lat":39.96727,"lng":-82.997612},"name":"Wolf's Ridge Brewing","neighborhood":"Columbus","paymentOptions":["AMEX","Discover","MasterCard","Visa"],"prices":"$30 and under","rating":4.5,"reviews":486},{"area":"Columbus","city":"Columbus","cuisine":"Japanese","objectID":"87070","image":"https://www.opentable.com/img/restimages/87070.jpg","_geoloc":{"lat":40.14504,"lng":-82.975331},"name":"Benihana - Columbus","neighborhood":"Polaris","paymentOptions":["AMEX","Discover","MasterCard","Visa"],"prices":"$30 and under","rating":4.1,"reviews":357},{"area":"Columbus","city":"Columbus","cuisine":"Fondue","objectID":"60457","image":"https://www.opentable.com/img/restimages/60457.jpg","_geoloc":{"lat":40.049135,"lng":-82.914684},"name":"The Melting Pot - Columbus","neighborhood":"Columbus","paymentOptions":["AMEX","Discover","MasterCard","Visa"],"prices":"$31 to $50","rating":4.4,"reviews":862},{"area":"Columbus","city":"Grandview Heights","cuisine":"American","objectID":"138628","image":"https://www.opentable.com/img/restimages/138628.jpg","_geoloc":{"lat":39.974659,"lng":-83.036404},"name":"Red Hook Grill","neighborhood":"Grandview Heights","paymentOptions":["AMEX","Discover","MasterCard","Visa"],"prices":"$30 and under","rating":4.4,"reviews":91},{"area":"Columbus","city":"Columbus","cuisine":"American","objectID":"103969","image":"https://www.opentable.com/img/restimages/103969.jpg","_geoloc":{"lat":40.052276,"lng":-83.020045},"name":"The Wine Bistro - Clintonville","neighborhood":"Clintonville","paymentOptions":["AMEX","Discover","MasterCard","Visa"],"prices":"$30 and under","rating":4.3,"reviews":209},{"area":"Columbus","city":"Columbus","cuisine":"Tapas / Small Plates","objectID":"71200","image":"https://www.opentable.com/img/restimages/71200.jpg","_geoloc":{"lat":39.956661,"lng":-82.996113},"name":"SideBar 122","neighborhood":"Columbus","paymentOptions":["AMEX","Discover","MasterCard","Visa"],"prices":"$30 and under","rating":4.5,"reviews":474},{"area":"Columbus","city":"Delaware","cuisine":"Contemporary American","objectID":"118339","image":"https://www.opentable.com/img/restimages/118339.jpg","_geoloc":{"lat":40.30015,"lng":-83.066856},"name":"Veritas Tavern","neighborhood":"Delaware","paymentOptions":["AMEX","Discover","MasterCard","Visa"],"prices":"$31 to $50","rating":4.7,"reviews":121},{"area":"Columbus","city":"Columbus","cuisine":"International","objectID":"96487","image":"https://www.opentable.com/img/restimages/96487.jpg","_geoloc":{"lat":39.984147,"lng":-83.044937},"name":"SPAGIO","neighborhood":"Columbus","paymentOptions":["AMEX","Discover","MasterCard","Visa"],"prices":"$30 and under","rating":4.3,"reviews":485},{"area":"Columbus","city":"Columbus","cuisine":"American","objectID":"76306","image":"https://www.opentable.com/img/restimages/76306.jpg","_geoloc":{"lat":40.048979,"lng":-82.911994},"name":"The Dining Room - Columbus Easton","neighborhood":"Columbus","paymentOptions":["AMEX","Discover","MasterCard","Visa"],"prices":"$31 to $50","rating":3.8,"reviews":154},{"area":"Columbus","city":"Columbus","cuisine":"American","objectID":"117079","image":"https://www.opentable.com/img/restimages/117079.jpg","_geoloc":{"lat":39.978598,"lng":-83.00401},"name":"Hubbard Grille","neighborhood":"Columbus","paymentOptions":["AMEX","Discover","MasterCard","Visa"],"prices":"$30 and under","rating":4.4,"reviews":215},{"area":"Columbus","city":"Dublin","cuisine":"Steakhouse","objectID":"35398","image":"https://www.opentable.com/img/restimages/35398.jpg","_geoloc":{"lat":40.100245,"lng":-83.114295},"name":"Tucci's","neighborhood":"Dublin","paymentOptions":["AMEX","Discover","MasterCard","Visa"],"prices":"$31 to $50","rating":4.6,"reviews":862},{"area":"Columbus","city":"Westerville","cuisine":"American","objectID":"116554","image":"https://www.opentable.com/img/restimages/116554.jpg","_geoloc":{"lat":40.150603,"lng":-82.922154},"name":"Wine Bistro Westerville","neighborhood":"Westerville","paymentOptions":["AMEX","Discover","MasterCard","Visa"],"prices":"$30 and under","rating":4.4,"reviews":169},{"area":"Columbus","city":"Columbus","cuisine":"Asian","objectID":"110191","image":"https://www.opentable.com/img/restimages/110191.jpg","_geoloc":{"lat":39.968152,"lng":-83.00551},"name":"BD's Mongolian Grill – Arena","neighborhood":"Short North - Arena District","paymentOptions":["AMEX","Discover","MasterCard","Visa"],"prices":"$30 and under","rating":3.6,"reviews":55},{"area":"Columbus","city":"Columbus","cuisine":"Asian","objectID":"13969","image":"https://www.opentable.com/img/restimages/13969.jpg","_geoloc":{"lat":40.141416,"lng":-82.978663},"name":"Molly Woo's","neighborhood":"Polaris","paymentOptions":["AMEX","Discover","MasterCard","Visa"],"prices":"$30 and under","rating":4.4,"reviews":826},{"area":"Columbus","city":"Columbus","cuisine":"Italian","objectID":"83425","image":"https://www.opentable.com/img/restimages/83425.jpg","_geoloc":{"lat":40.053129,"lng":-83.066111},"name":"Nicola Restaurant and Bar","neighborhood":"Upper Arlington","paymentOptions":["AMEX","Discover","MasterCard","Visa"],"prices":"$30 and under","rating":4.4,"reviews":426},{"area":"Columbus","city":"Columbus","cuisine":"Italian","objectID":"110248","image":"https://www.opentable.com/img/restimages/110248.jpg","_geoloc":{"lat":39.959779,"lng":-83.000348},"name":"Manifesto Tuscan Grato and Scotch Bar","neighborhood":"Columbus","paymentOptions":["AMEX","Discover","MasterCard","Visa"],"prices":"$30 and under","rating":4,"reviews":204},{"area":"Columbus","city":"Columbus","cuisine":"Italian","objectID":"150070","image":"https://www.opentable.com/img/restimages/150070.jpg","_geoloc":{"lat":40.066856,"lng":-83.096968},"name":"BRAVO Cucina Italiana - Columbus - Bethel Road","neighborhood":"Northwest Columbus","paymentOptions":["AMEX","Discover","MasterCard","Visa"],"prices":"$30 and under","rating":4.2,"reviews":128},{"area":"Columbus","city":"Columbus","cuisine":"Seafood","objectID":"80746","image":"https://www.opentable.com/img/restimages/80746.jpg","_geoloc":{"lat":39.968728,"lng":-82.999437},"name":"89 Fish and Grill","neighborhood":"Columbus","paymentOptions":["AMEX","Discover","MasterCard","Visa"],"prices":"$30 and under","rating":4.2,"reviews":891},{"area":"Columbus","city":"Columbus","cuisine":"American","objectID":"109345","image":"https://www.opentable.com/img/restimages/109345.jpg","_geoloc":{"lat":40.004691,"lng":-83.016581},"name":"Bistro 2110 - The Blackwell Hotel","neighborhood":"Columbus","paymentOptions":["AMEX","Discover","MasterCard","Visa"],"prices":"$30 and under","rating":3.6,"reviews":60},{"area":"Columbus","city":"Columbus","cuisine":"Japanese","objectID":"34675","image":"https://www.opentable.com/img/restimages/34675.jpg","_geoloc":{"lat":40.141446,"lng":-82.991763},"name":"House of Japan - Polaris","neighborhood":"Polaris","paymentOptions":["AMEX","Discover","MasterCard","Visa"],"prices":"$30 and under","rating":4,"reviews":571},{"area":"Columbus","city":"Columbus","cuisine":"Italian","objectID":"91342","image":"https://www.opentable.com/img/restimages/91342.jpg","_geoloc":{"lat":39.950472,"lng":-82.998858},"name":"Tony's Italian Ristorante","neighborhood":"German Village","paymentOptions":["AMEX","MasterCard","Visa"],"prices":"$30 and under","rating":4.4,"reviews":131},{"area":"Columbus","city":"Columbus","cuisine":"Contemporary American","objectID":"22051","image":"https://www.opentable.com/img/restimages/22051.jpg","_geoloc":{"lat":40.09012,"lng":-83.048936},"name":"Cameron's American Bistro","neighborhood":"Worthington","paymentOptions":["AMEX","Discover","MasterCard","Visa"],"prices":"$30 and under","rating":4.6,"reviews":1786},{"area":"Columbus","city":"Dublin","cuisine":"Italian","objectID":"62740","image":"https://www.opentable.com/img/restimages/62740.jpg","_geoloc":{"lat":40.099526,"lng":-83.114011},"name":"Mezzo - Dublin","neighborhood":"Dublin","paymentOptions":["AMEX","Discover","MasterCard","Visa"],"prices":"$30 and under","rating":4.3,"reviews":632},{"area":"Columbus","city":"Columbus","cuisine":"Italian","objectID":"150088","image":"https://www.opentable.com/img/restimages/150088.jpg","_geoloc":{"lat":39.996275,"lng":-83.025755},"name":"BRAVO Cucina Italiana - Columbus - Lennox","neighborhood":"Columbus","paymentOptions":["AMEX","Discover","MasterCard","Visa"],"prices":"$30 and under","rating":4.4,"reviews":149},{"area":"Columbus","city":"Gahanna","cuisine":"Contemporary American","objectID":"111232","image":"https://www.opentable.com/img/restimages/111232.jpg","_geoloc":{"lat":40.019922,"lng":-82.879591},"name":"The Wine Guy Bistro-Gahanna","neighborhood":"Gahanna","paymentOptions":["AMEX","Discover","MasterCard","Visa"],"prices":"$30 and under","rating":4.5,"reviews":176},{"area":"Columbus","city":"Columbus","cuisine":"Contemporary American","objectID":"10858","image":"https://www.opentable.com/img/restimages/10858.jpg","_geoloc":{"lat":39.950306,"lng":-82.995635},"name":"G. Michael's Bistro & Bar","neighborhood":"German Village","paymentOptions":["AMEX","Discover","MasterCard","Visa"],"prices":"$30 and under","rating":4.6,"reviews":1471},{"area":"Columbus","city":"Columbus","cuisine":"Gastro Pub","objectID":"100192","image":"https://www.opentable.com/img/restimages/100192.jpg","_geoloc":{"lat":39.97532,"lng":-83.00359},"name":"The Pearl","neighborhood":"Short North - Arena District","paymentOptions":["AMEX","Discover","MasterCard","Visa"],"prices":"$30 and under","rating":4.5,"reviews":1656},{"area":"Columbus","city":"Dublin","cuisine":"Japanese","objectID":"37141","image":"https://www.opentable.com/img/restimages/37141.jpg","_geoloc":{"lat":40.08691,"lng":-83.091222},"name":"Genji Japanese Steakhouse - Dublin","neighborhood":"Dublin","paymentOptions":["AMEX","Discover","MasterCard","Visa"],"prices":"$30 and under","rating":4.7,"reviews":326},{"area":"Columbus","city":"Columbus","cuisine":"Contemporary American","objectID":"87946","image":"https://www.opentable.com/img/restimages/87946.jpg","_geoloc":{"lat":39.978358,"lng":-83.003752},"name":"Union Cafe","neighborhood":"Columbus","paymentOptions":["AMEX","Discover","MasterCard","Visa"],"prices":"$30 and under","rating":4.5,"reviews":125},{"area":"Columbus","city":"Columbus","cuisine":"Italian","objectID":"53386","image":"https://www.opentable.com/img/restimages/53386.jpg","_geoloc":{"lat":39.969309,"lng":-83.004284},"name":"Buca di Beppo - Columbus","neighborhood":"Columbus","paymentOptions":["AMEX","Discover","MasterCard","Visa"],"prices":"$30 and under","rating":4.1,"reviews":1143},{"area":"Columbus","city":"Athens","cuisine":"Steakhouse","objectID":"38140","image":"https://www.opentable.com/img/restimages/38140.jpg","_geoloc":{"lat":39.317076,"lng":-82.106055},"name":"Cutler's","neighborhood":"Athens","paymentOptions":["AMEX","Discover","MasterCard","Visa"],"prices":"$30 and under","rating":4.7,"reviews":115},{"area":"Columbus","city":"Columbus","cuisine":"Mexican","objectID":"45820","image":"https://www.opentable.com/img/restimages/45820.jpg","_geoloc":{"lat":40.145037,"lng":-82.975332},"name":"Cantina Laredo - Columbus","neighborhood":"Columbus","paymentOptions":["AMEX","Discover","MasterCard","Visa"],"prices":"$30 and under","rating":4.2,"reviews":434},{"area":"Columbus","city":"Columbus","cuisine":"Italian","objectID":"150073","image":"https://www.opentable.com/img/restimages/150073.jpg","_geoloc":{"lat":40.115277,"lng":-83.013863},"name":"BRAVO Cucina Italiana - Columbus - Crosswoods","neighborhood":"Worthington","paymentOptions":["AMEX","Discover","MasterCard","Visa"],"prices":"$30 and under","rating":4.2,"reviews":110},{"area":"Columbus","city":"Columbus","cuisine":"Contemporary American","objectID":"103948","image":"https://www.opentable.com/img/restimages/103948.jpg","_geoloc":{"lat":40.132709,"lng":-83.016729},"name":"The Wine Bistro - Worthington","neighborhood":"Worthington","paymentOptions":["AMEX","Discover","MasterCard","Visa"],"prices":"$30 and under","rating":4.3,"reviews":172},{"area":"Columbus","city":"Dublin","cuisine":"Japanese","objectID":"34678","image":"https://www.opentable.com/img/restimages/34678.jpg","_geoloc":{"lat":40.077364,"lng":-83.134165},"name":"House of Japan - Dublin","neighborhood":"Dublin","paymentOptions":["AMEX","Discover","MasterCard","Visa"],"prices":"$30 and under","rating":4.5,"reviews":848},{"area":"Columbus","city":"Delaware","cuisine":"American","objectID":"38941","image":"https://www.opentable.com/img/restimages/38941.jpg","_geoloc":{"lat":40.300073,"lng":-83.066415},"name":"1808 American Bistro","neighborhood":"Delaware","paymentOptions":["AMEX","Discover","MasterCard","Visa"],"prices":"$30 and under","rating":4.5,"reviews":514},{"area":"Columbus","city":"Powell","cuisine":"Italian","objectID":"34684","image":"https://www.opentable.com/img/restimages/34684.jpg","_geoloc":{"lat":40.148982,"lng":-83.093118},"name":"Vittoria","neighborhood":"Powell","paymentOptions":["AMEX","Discover","MasterCard","Visa"],"prices":"$31 to $50","rating":4.8,"reviews":1018},{"area":"Columbus","city":"Reynoldsburg","cuisine":"Japanese","objectID":"37138","image":"https://www.opentable.com/img/restimages/37138.jpg","_geoloc":{"lat":39.939364,"lng":-82.830166},"name":"Genji Japanese Steakhouse - Reynoldsburg","neighborhood":"Reynoldsburg","paymentOptions":["AMEX","Discover","MasterCard","Visa"],"prices":"$30 and under","rating":3.6,"reviews":272},{"area":"Corpus Christi / McAllen","city":"Mcallen","cuisine":"Steakhouse","objectID":"128275","image":"https://www.opentable.com/img/restimages/128275.jpg","_geoloc":{"lat":26.203352,"lng":-98.238214},"name":"The Patio on Guerra","neighborhood":"McAllen","paymentOptions":["AMEX","Discover","MasterCard","Visa"],"prices":"$31 to $50","rating":4.3,"reviews":72},{"area":"Corpus Christi / McAllen","city":"Corpus Christi","cuisine":"Steakhouse","objectID":"92449","image":"https://www.opentable.com/img/restimages/92449.jpg","_geoloc":{"lat":27.687789,"lng":-97.381098},"name":"Katz 21 Steak and Spirits","neighborhood":"Corpus Christi","paymentOptions":["AMEX","Discover","MasterCard","Visa"],"prices":"$31 to $50","rating":4.6,"reviews":182},{"area":"Corpus Christi / McAllen","city":"Mcallen","cuisine":"Contemporary American","objectID":"110227","image":"https://www.opentable.com/img/restimages/110227.jpg","_geoloc":{"lat":26.203605,"lng":-98.231792},"name":"House. Wine. & Bistro","neighborhood":"McAllen","paymentOptions":["AMEX","Discover","MasterCard","Visa"],"prices":"$30 and under","rating":4.2,"reviews":95},{"area":"Corpus Christi / McAllen","city":"McAllen","cuisine":"Contemporary American","objectID":"116863","image":"https://www.opentable.com/img/restimages/116863.jpg","_geoloc":{"lat":26.205915,"lng":-98.233903},"name":"SALT","neighborhood":"McAllen","paymentOptions":["AMEX","Discover","MasterCard","Visa"],"prices":"$30 and under","rating":4.6,"reviews":208},{"area":"Dallas - Fort Worth","city":"Dallas","cuisine":"American","objectID":"6539","image":"https://www.opentable.com/img/restimages/6539.jpg","_geoloc":{"lat":32.785135,"lng":-96.781218},"name":"Local","neighborhood":"Deep Ellum","paymentOptions":["AMEX","Discover","MasterCard","Visa"],"prices":"$50 and over","rating":4.5,"reviews":766},{"area":"Dallas - Fort Worth","city":"Addison","cuisine":"Seafood","objectID":"5526","image":"https://www.opentable.com/img/restimages/5526.jpg","_geoloc":{"lat":32.95526,"lng":-96.844675},"name":"Lefty's","neighborhood":"North Dallas / Addison","paymentOptions":["AMEX","Discover","MasterCard","Visa"],"prices":"$30 and under","rating":4.3,"reviews":638},{"area":"Dallas - Fort Worth","city":"Dallas","cuisine":"Steak","objectID":"4294","image":"https://www.opentable.com/img/restimages/4294.jpg","_geoloc":{"lat":32.7814,"lng":-96.8067},"name":"Y.O. Ranch Steakhouse","neighborhood":"Downtown","paymentOptions":["AMEX","Discover","MasterCard","Visa"],"prices":"$31 to $50","rating":4.4,"reviews":821},{"area":"Dallas - Fort Worth","city":"Dallas","cuisine":"Italian","objectID":"57349","image":"https://www.opentable.com/img/restimages/57349.jpg","_geoloc":{"lat":32.798508,"lng":-96.803806},"name":"Momo's Pasta Dallas","neighborhood":"Uptown","paymentOptions":["AMEX","Discover","MasterCard","Visa"],"prices":"$30 and under","rating":4.1,"reviews":259},{"area":"Dallas - Fort Worth","city":"Plano","cuisine":"Sushi","objectID":"5084","image":"https://www.opentable.com/img/restimages/5084.jpg","_geoloc":{"lat":33.076,"lng":-96.821},"name":"NAAN Sushi","neighborhood":"Plano","paymentOptions":["AMEX","Discover","MasterCard","Visa"],"prices":"$30 and under","rating":4.3,"reviews":188},{"area":"Dallas - Fort Worth","city":"Colleyville","cuisine":"Global, International","objectID":"145081","image":"https://www.opentable.com/img/restimages/145081.jpg","_geoloc":{"lat":32.904429,"lng":-97.185569},"name":"Trio New American Cafe","neighborhood":"Colleyville","paymentOptions":["AMEX","Discover","MasterCard","Visa"],"prices":"$30 and under","rating":4.7,"reviews":69},{"area":"Dallas - Fort Worth","city":"Dallas","cuisine":"Southwest","objectID":"5443","image":"https://www.opentable.com/img/restimages/5443.jpg","_geoloc":{"lat":32.785821,"lng":-96.800563},"name":"Stephan Pyles","neighborhood":"Downtown","paymentOptions":["AMEX","Discover","MasterCard","Visa"],"prices":"$50 and over","rating":4.3,"reviews":2008},{"area":"Dallas - Fort Worth","city":"Dallas","cuisine":"Italian","objectID":"15514","image":"https://www.opentable.com/img/restimages/15514.jpg","_geoloc":{"lat":32.822534,"lng":-96.790777},"name":"Villa O","neighborhood":"Knox / Henderson","paymentOptions":["AMEX","Discover","MasterCard","Visa"],"prices":"$30 and under","rating":4.3,"reviews":694},{"area":"Dallas - Fort Worth","city":"Dallas","cuisine":"Contemporary American","objectID":"150856","image":"https://www.opentable.com/img/restimages/150856.jpg","_geoloc":{"lat":32.797987,"lng":-96.798145},"name":"State & Allen Kitchen + Bar","neighborhood":"Uptown","paymentOptions":["AMEX","Discover","MasterCard","Visa"],"prices":"$30 and under","rating":4.2,"reviews":42},{"area":"Dallas - Fort Worth","city":"Dallas","cuisine":"American","objectID":"14941","image":"https://www.opentable.com/img/restimages/14941.jpg","_geoloc":{"lat":32.792526,"lng":-96.802972},"name":"Fearing's","neighborhood":"Uptown","paymentOptions":["AMEX","Discover","MasterCard","Visa"],"prices":"$50 and over","rating":4.5,"reviews":2908},{"area":"Dallas - Fort Worth","city":"Dallas","cuisine":"Steak","objectID":"1959","image":"https://www.opentable.com/img/restimages/1959.jpg","_geoloc":{"lat":32.8661,"lng":-96.8975},"name":"Pappas Bros. Steakhouse","neighborhood":"NW Dallas / Love Field Area","paymentOptions":["AMEX","Discover","MasterCard","Visa"],"prices":"$50 and over","rating":4.6,"reviews":3980},{"area":"Dallas - Fort Worth","city":"Dallas","cuisine":"American","objectID":"3247","image":"https://www.opentable.com/img/restimages/3247.jpg","_geoloc":{"lat":32.8211,"lng":-96.7883},"name":"Abacus","neighborhood":"Uptown","paymentOptions":["AMEX","Discover","MasterCard","Visa"],"prices":"$50 and over","rating":4.6,"reviews":1946},{"area":"Dallas - Fort Worth","city":"Dallas","cuisine":"French","objectID":"5567","image":"https://www.opentable.com/img/restimages/5567.jpg","_geoloc":{"lat":32.998465,"lng":-96.797688},"name":"Cadot Restaurant","neighborhood":"North Dallas / Addison","paymentOptions":["AMEX","Discover","MasterCard","Visa"],"prices":"$30 and under","rating":4.5,"reviews":688},{"area":"Dallas - Fort Worth","city":"Dallas","cuisine":"American","objectID":"145099","image":"https://www.opentable.com/img/restimages/145099.jpg","_geoloc":{"lat":32.793681,"lng":-96.807295},"name":"Marie Gabrielle Restaurant & Gardens","neighborhood":"Uptown","paymentOptions":["AMEX","MasterCard","Visa"],"prices":"$30 and under","rating":4.3,"reviews":11},{"area":"Dallas - Fort Worth","city":"Dallas","cuisine":"Mexican","objectID":"149758","image":"https://www.opentable.com/img/restimages/149758.jpg","_geoloc":{"lat":32.8056,"lng":-96.798918},"name":"Urban Taco - Uptown","neighborhood":"Uptown","paymentOptions":["AMEX","MasterCard","Visa"],"prices":"$30 and under","rating":4.4,"reviews":25},{"area":"Dallas - Fort Worth","city":"Dallas","cuisine":"American","objectID":"1062","image":"https://www.opentable.com/img/restimages/1062.jpg","_geoloc":{"lat":32.793941,"lng":-96.80445},"name":"Palomino - Dallas","neighborhood":"Uptown","paymentOptions":["AMEX","Discover","MasterCard","Visa"],"prices":"$30 and under","rating":4.2,"reviews":955},{"area":"Dallas - Fort Worth","city":"Grapevine","cuisine":"Steak","objectID":"4957","image":"https://www.opentable.com/img/restimages/4957.jpg","_geoloc":{"lat":32.928,"lng":-97.086},"name":"Silver Fox - Grapevine","neighborhood":"Grapevine","paymentOptions":["AMEX","Discover","MasterCard","Visa"],"prices":"$50 and over","rating":4.1,"reviews":879},{"area":"Dallas - Fort Worth","city":"Dallas","cuisine":"Contemporary French / American","objectID":"4332","image":"https://www.opentable.com/img/restimages/4332.jpg","_geoloc":{"lat":32.7796,"lng":-96.800414},"name":"The French Room","neighborhood":"Downtown","paymentOptions":["AMEX","Discover","MasterCard","Visa"],"prices":"$50 and over","rating":4.8,"reviews":1733},{"area":"Dallas - Fort Worth","city":"Dallas","cuisine":"Steakhouse","objectID":"4092","image":"https://www.opentable.com/img/restimages/4092.jpg","_geoloc":{"lat":32.7846,"lng":-96.8006},"name":"Dakota's Steakhouse","neighborhood":"Downtown","paymentOptions":["AMEX","Discover","MasterCard","Visa"],"prices":"$31 to $50","rating":4.6,"reviews":1529},{"area":"Dallas - Fort Worth","city":"Addison","cuisine":"Fondue","objectID":"107437","image":"https://www.opentable.com/img/restimages/107437.jpg","_geoloc":{"lat":32.953947,"lng":-96.827763},"name":"The Melting Pot - Dallas - Addison","neighborhood":"North Dallas / Addison","paymentOptions":["AMEX","Discover","MasterCard","Visa"],"prices":"$50 and over","rating":4.1,"reviews":611},{"area":"Dallas - Fort Worth","city":"Dallas","cuisine":"French","objectID":"24559","image":"https://www.opentable.com/img/restimages/24559.jpg","_geoloc":{"lat":32.79579,"lng":-96.804243},"name":"The Old Warsaw","neighborhood":"Uptown","paymentOptions":["AMEX","Discover","MasterCard","Visa"],"prices":"$50 and over","rating":4,"reviews":727},{"area":"Dallas - Fort Worth","city":"Dallas","cuisine":"Steak","objectID":"1896","image":"https://www.opentable.com/img/restimages/1896.jpg","_geoloc":{"lat":32.801196,"lng":-96.827094},"name":"SÉR Steak+Spirits","neighborhood":"Downtown","paymentOptions":["AMEX","Discover","MasterCard","Visa"],"prices":"$50 and over","rating":4.2,"reviews":639},{"area":"Dallas - Fort Worth","city":"Dallas","cuisine":"Steakhouse","objectID":"2059","image":"https://www.opentable.com/img/restimages/2059.jpg","_geoloc":{"lat":32.793941,"lng":-96.80445},"name":"The Capital Grille - Dallas - Uptown","neighborhood":"Uptown","paymentOptions":["AMEX","Discover","MasterCard","Visa"],"prices":"$50 and over","rating":4.6,"reviews":1298},{"area":"Dallas - Fort Worth","city":"Dallas","cuisine":"Steakhouse","objectID":"72721","image":"https://www.opentable.com/img/restimages/72721.jpg","_geoloc":{"lat":32.775934,"lng":-96.803236},"name":"Bob's Steak & Chop House - Dallas on Lamar","neighborhood":"Downtown","paymentOptions":["AMEX","Discover","MasterCard","Visa"],"prices":"$31 to $50","rating":4.6,"reviews":698},{"area":"Dallas - Fort Worth","city":"Dallas","cuisine":"Italian","objectID":"151546","image":"https://www.opentable.com/img/restimages/151546.jpg","_geoloc":{"lat":32.821196,"lng":-96.815325},"name":"Nonna - Dallas","neighborhood":"Park Cities","paymentOptions":["AMEX","Discover","MasterCard","Visa"],"prices":"$31 to $50","rating":4.5,"reviews":91},{"area":"Dallas - Fort Worth","city":"Dallas","cuisine":"European","objectID":"22813","image":"https://www.opentable.com/img/restimages/22813.jpg","_geoloc":{"lat":32.951931,"lng":-96.820574},"name":"Mercy Wine Bar","neighborhood":"North Dallas / Addison","paymentOptions":["AMEX","Discover","MasterCard","Visa"],"prices":"$30 and under","rating":4.3,"reviews":651},{"area":"Dallas - Fort Worth","city":"Mansfield","cuisine":"Mexican","objectID":"117067","image":"https://www.opentable.com/img/restimages/117067.jpg","_geoloc":{"lat":32.594093,"lng":-97.106282},"name":"Prime","neighborhood":"Mansfield","paymentOptions":["AMEX","Discover","MasterCard","Visa"],"prices":"$30 and under","rating":3.5,"reviews":3},{"area":"Dallas - Fort Worth","city":"Fort Worth","cuisine":"Brazilian Steakhouse","objectID":"144949","image":"https://www.opentable.com/img/restimages/144949.jpg","_geoloc":{"lat":32.75029,"lng":-97.358735},"name":"Rafain Brazilian Steakhouse","neighborhood":"Fort Worth Downtown","paymentOptions":["AMEX","Discover","MasterCard","Visa"],"prices":"$31 to $50","rating":4.3,"reviews":244},{"area":"Dallas - Fort Worth","city":"Plano","cuisine":"Seafood","objectID":"66457","image":"https://www.opentable.com/img/restimages/66457.jpg","_geoloc":{"lat":33.078444,"lng":-96.823187},"name":"The Capital Grille - Plano","neighborhood":"Plano","paymentOptions":["AMEX","Discover","MasterCard","Visa"],"prices":"$50 and over","rating":4.7,"reviews":1245},{"area":"Dallas - Fort Worth","city":"Plano","cuisine":"Steak","objectID":"4152","image":"https://www.opentable.com/img/restimages/4152.jpg","_geoloc":{"lat":33.027493,"lng":-96.796706},"name":"Steve Fields Steak and Lobster Lounge","neighborhood":"Plano","paymentOptions":["AMEX","Discover","MasterCard","Visa"],"prices":"$31 to $50","rating":4.7,"reviews":2127},{"area":"Dallas - Fort Worth","city":"Denton","cuisine":"Steakhouse","objectID":"103894","image":"https://www.opentable.com/img/restimages/103894.jpg","_geoloc":{"lat":33.214526,"lng":-97.131443},"name":"Queenie's Steakhouse","neighborhood":"Denton","paymentOptions":["AMEX","Discover","MasterCard","Visa"],"prices":"$31 to $50","rating":4.4,"reviews":341},{"area":"Dallas - Fort Worth","city":"Frisco","cuisine":"Steakhouse","objectID":"17014","image":"https://www.opentable.com/img/restimages/17014.jpg","_geoloc":{"lat":33.150714,"lng":-96.823458},"name":"Randy's Steakhouse","neighborhood":"Frisco","paymentOptions":["AMEX","Discover","MasterCard","Visa"],"prices":"$31 to $50","rating":4.4,"reviews":1211},{"area":"Dallas - Fort Worth","city":"Dallas","cuisine":"Contemporary American","objectID":"6014","image":"https://www.opentable.com/img/restimages/6014.jpg","_geoloc":{"lat":32.8156,"lng":-96.792966},"name":"Salum Restaurant","neighborhood":"Uptown","paymentOptions":["AMEX","Discover","MasterCard","Visa"],"prices":"$30 and under","rating":4.6,"reviews":1260},{"area":"Dallas - Fort Worth","city":"Dallas","cuisine":"American","objectID":"103900","image":"https://www.opentable.com/img/restimages/103900.jpg","_geoloc":{"lat":32.841942,"lng":-96.775803},"name":"Café 43","neighborhood":"Downtown","paymentOptions":["AMEX","Discover","MasterCard","Visa"],"prices":"$30 and under","rating":4.7,"reviews":589},{"area":"Dallas - Fort Worth","city":"Dallas","cuisine":"Steak","objectID":"7349","image":"https://www.opentable.com/img/restimages/7349.jpg","_geoloc":{"lat":32.836538,"lng":-96.778319},"name":"Knife","neighborhood":"Park Cities","paymentOptions":["AMEX","Discover","MasterCard","Visa"],"prices":"$31 to $50","rating":4.6,"reviews":179},{"area":"Dallas - Fort Worth","city":"Fort Worth","cuisine":"Japanese","objectID":"115885","image":"https://www.opentable.com/img/restimages/115885.jpg","_geoloc":{"lat":32.730618,"lng":-97.331919},"name":"Shinjuku Station","neighborhood":"Fort Worth Downtown","paymentOptions":["AMEX","Discover","MasterCard","Visa"],"prices":"$31 to $50","rating":4.7,"reviews":44},{"area":"Dallas - Fort Worth","city":"Plano","cuisine":"Steakhouse","objectID":"16705","image":"https://www.opentable.com/img/restimages/16705.jpg","_geoloc":{"lat":33.050408,"lng":-96.794474},"name":"Mignon - Prime Steaks, Seafood and Cocktails","neighborhood":"Plano","paymentOptions":["AMEX","Discover","MasterCard","Visa"],"prices":"$31 to $50","rating":4.1,"reviews":662},{"area":"Dallas - Fort Worth","city":"Arlington","cuisine":"Italian","objectID":"136153","image":"https://www.opentable.com/img/restimages/136153.jpg","_geoloc":{"lat":32.678978,"lng":-97.126057},"name":"Spaghetti Warehouse - Arlington","neighborhood":"Arlington","paymentOptions":["AMEX","Discover","MasterCard","Visa"],"prices":"$30 and under","rating":4,"reviews":19},{"area":"Dallas - Fort Worth","city":"Dallas","cuisine":"American","objectID":"63364","image":"https://www.opentable.com/img/restimages/63364.jpg","_geoloc":{"lat":32.781754,"lng":-96.798048},"name":"Triniti at Tower Club","neighborhood":"Downtown","paymentOptions":["AMEX","MasterCard","Visa"],"prices":"$31 to $50","rating":4.3,"reviews":157},{"area":"Dallas - Fort Worth","city":"Dallas","cuisine":"American","objectID":"111808","image":"https://www.opentable.com/img/restimages/111808.jpg","_geoloc":{"lat":32.789452,"lng":-96.80187},"name":"Savor","neighborhood":"Uptown","paymentOptions":["AMEX","Discover","MasterCard","Visa"],"prices":"$30 and under","rating":4.3,"reviews":976},{"area":"Dallas - Fort Worth","city":"Dallas","cuisine":"Global, International","objectID":"11932","image":"https://www.opentable.com/img/restimages/11932.jpg","_geoloc":{"lat":32.907457,"lng":-96.673276},"name":"Grand Met","neighborhood":"DFW Corridor","paymentOptions":["AMEX","Discover","MasterCard","Visa"],"prices":"$31 to $50","rating":3.9,"reviews":77},{"area":"Dallas - Fort Worth","city":"Dallas","cuisine":"Steak","objectID":"3813","image":"https://www.opentable.com/img/restimages/3813.jpg","_geoloc":{"lat":32.991826,"lng":-96.828968},"name":"III Forks - Dallas","neighborhood":"North Dallas / Addison","paymentOptions":["AMEX","Discover","MasterCard","Visa"],"prices":"$31 to $50","rating":4.5,"reviews":4447},{"area":"Dallas - Fort Worth","city":"Dallas","cuisine":"Contemporary American","objectID":"106792","image":"https://www.opentable.com/img/restimages/106792.jpg","_geoloc":{"lat":32.780683,"lng":-96.79843},"name":"CBD Provisions","neighborhood":"Downtown","paymentOptions":["AMEX","Discover","MasterCard","Visa"],"prices":"$30 and under","rating":4.3,"reviews":456},{"area":"Dallas - Fort Worth","city":"Dallas","cuisine":"Sushi","objectID":"115150","image":"https://www.opentable.com/img/restimages/115150.jpg","_geoloc":{"lat":32.81174,"lng":-96.813292},"name":"Ai Sushi Sake Grill","neighborhood":"Turtle Creek / Oak Lawn","paymentOptions":["AMEX","Discover","MasterCard","Visa"],"prices":"$30 and under","rating":4,"reviews":61},{"area":"Dallas - Fort Worth","city":"Fort Worth","cuisine":"Contemporary American","objectID":"114826","image":"https://www.opentable.com/img/restimages/114826.jpg","_geoloc":{"lat":32.728694,"lng":-97.36334},"name":"Pacific Table","neighborhood":"Fort Worth Cultural District & TCU","paymentOptions":["AMEX","Discover","MasterCard","Visa"],"prices":"$30 and under","rating":4.5,"reviews":423},{"area":"Dallas - Fort Worth","city":"Richardson","cuisine":"Steakhouse","objectID":"79192","image":"https://www.opentable.com/img/restimages/79192.jpg","_geoloc":{"lat":33.001372,"lng":-96.685655},"name":"Texas","neighborhood":"Richardson","paymentOptions":["AMEX","Discover","MasterCard","Visa"],"prices":"$31 to $50","rating":4.6,"reviews":699},{"area":"Dallas - Fort Worth","city":"Addison","cuisine":"American","objectID":"140854","image":"https://www.opentable.com/img/restimages/140854.jpg","_geoloc":{"lat":32.954171,"lng":-96.830434},"name":"Table 13","neighborhood":"North Dallas / Addison","paymentOptions":["AMEX","Discover","MasterCard","Visa"],"prices":"$30 and under","rating":4.4,"reviews":475},{"area":"Dallas - Fort Worth","city":"Roanoke","cuisine":"American","objectID":"5775","image":"https://www.opentable.com/img/restimages/5775.jpg","_geoloc":{"lat":33.002,"lng":-97.227},"name":"The Classic Cafe at Roanoke","neighborhood":"Roanoke","paymentOptions":["AMEX","Discover","MasterCard","Visa"],"prices":"$31 to $50","rating":4.6,"reviews":774},{"area":"Dallas - Fort Worth","city":"Dallas","cuisine":"Contemporary American","objectID":"116560","image":"https://www.opentable.com/img/restimages/116560.jpg","_geoloc":{"lat":32.814177,"lng":-96.778272},"name":"Gemma","neighborhood":"Knox / Henderson","paymentOptions":["AMEX","Discover","MasterCard","Visa"],"prices":"$31 to $50","rating":4.7,"reviews":506},{"area":"Dallas - Fort Worth","city":"Plano","cuisine":"American","objectID":"114550","image":"https://www.opentable.com/img/restimages/114550.jpg","_geoloc":{"lat":33.0764,"lng":-96.821231},"name":"Sambuca - Plano","neighborhood":"Plano","paymentOptions":["AMEX","Discover","MasterCard","Visa"],"prices":"$30 and under","rating":3.9,"reviews":107},{"area":"Dallas - Fort Worth","city":"Dallas","cuisine":"American","objectID":"139639","image":"https://www.opentable.com/img/restimages/139639.jpg","_geoloc":{"lat":32.795305,"lng":-96.803535},"name":"Kennedy Room","neighborhood":"Uptown","paymentOptions":["AMEX","Discover","MasterCard","Visa"],"prices":"$30 and under","rating":4,"reviews":2},{"area":"Dallas - Fort Worth","city":"Dallas","cuisine":"Contemporary American","objectID":"79417","image":"https://www.opentable.com/img/restimages/79417.jpg","_geoloc":{"lat":32.796041,"lng":-96.819722},"name":"FT33","neighborhood":"Design District","paymentOptions":["AMEX","Discover","MasterCard","Visa"],"prices":"$31 to $50","rating":4.6,"reviews":974},{"area":"Dallas - Fort Worth","city":"Dallas","cuisine":"Steak","objectID":"40738","image":"https://www.opentable.com/img/restimages/40738.jpg","_geoloc":{"lat":32.78131,"lng":-96.796404},"name":"Dallas Chop House","neighborhood":"Downtown","paymentOptions":["AMEX","Discover","MasterCard","Visa"],"prices":"$31 to $50","rating":4.3,"reviews":731},{"area":"Dallas - Fort Worth","city":"Dallas","cuisine":"Contemporary American","objectID":"103876","image":"https://www.opentable.com/img/restimages/103876.jpg","_geoloc":{"lat":32.789571,"lng":-96.802097},"name":"LARK on the Park","neighborhood":"Uptown","paymentOptions":["AMEX","Discover","MasterCard","Visa"],"prices":"$30 and under","rating":4.3,"reviews":968},{"area":"Dallas - Fort Worth","city":"McKinney","cuisine":"Tapas / Small Plates","objectID":"50890","image":"https://www.opentable.com/img/restimages/50890.jpg","_geoloc":{"lat":33.19632,"lng":-96.617046},"name":"Cafe Malaga","neighborhood":"McKinney","paymentOptions":["AMEX","Discover","MasterCard","Visa"],"prices":"$31 to $50","rating":4.3,"reviews":518},{"area":"Dallas - Fort Worth","city":"Arlington","cuisine":"American","objectID":"114019","image":"https://www.opentable.com/img/restimages/114019.jpg","_geoloc":{"lat":32.752888,"lng":-97.066669},"name":"Humperdinks - Arlington","neighborhood":"Arlington","paymentOptions":["AMEX","Discover","MasterCard","Visa"],"prices":"$30 and under","rating":4,"reviews":31},{"area":"Dallas - Fort Worth","city":"Frisco","cuisine":"Creole / Cajun / Southern","objectID":"111103","image":"https://www.opentable.com/img/restimages/111103.jpg","_geoloc":{"lat":33.152233,"lng":-96.83497},"name":"Nola Grill","neighborhood":"Frisco","paymentOptions":["AMEX","Discover","MasterCard","Visa"],"prices":"$31 to $50","rating":4.5,"reviews":243},{"area":"Dallas - Fort Worth","city":"Dallas","cuisine":"Gastro Pub","objectID":"98527","image":"https://www.opentable.com/img/restimages/98527.jpg","_geoloc":{"lat":32.788621,"lng":-96.809173},"name":"Cook Hall - Dallas","neighborhood":"Uptown","paymentOptions":["AMEX","Discover","MasterCard","Visa"],"prices":"$30 and under","rating":4,"reviews":124},{"area":"Dallas - Fort Worth","city":"Dallas","cuisine":"Contemporary American","objectID":"5175","image":"https://www.opentable.com/img/restimages/5175.jpg","_geoloc":{"lat":32.82096,"lng":-96.785561},"name":"Hibiscus","neighborhood":"Knox / Henderson","paymentOptions":["AMEX","Discover","MasterCard","Visa"],"prices":"$31 to $50","rating":4.5,"reviews":1593},{"area":"Dallas - Fort Worth","city":"Dallas","cuisine":"Mexican","objectID":"75541","image":"https://www.opentable.com/img/restimages/75541.jpg","_geoloc":{"lat":32.911342,"lng":-96.805247},"name":"Meso Maya - Preston Forest","neighborhood":"North Dallas / Addison","paymentOptions":["AMEX","MasterCard","Visa"],"prices":"$30 and under","rating":4.5,"reviews":422},{"area":"Dallas - Fort Worth","city":"Plano","cuisine":"Latin American","objectID":"111940","image":"https://www.opentable.com/img/restimages/111940.jpg","_geoloc":{"lat":33.080032,"lng":-96.823689},"name":"Mexican Sugar","neighborhood":"Plano","paymentOptions":["AMEX","MasterCard","Visa"],"prices":"$30 and under","rating":4.3,"reviews":67},{"area":"Dallas - Fort Worth","city":"Dallas","cuisine":"Contemporary European","objectID":"105559","image":"https://www.opentable.com/img/restimages/105559.jpg","_geoloc":{"lat":32.791833,"lng":-96.806134},"name":"Mercat","neighborhood":"Uptown","paymentOptions":["AMEX","Discover","MasterCard","Visa"],"prices":"$30 and under","rating":4.4,"reviews":217},{"area":"Dallas - Fort Worth","city":"Ft. Worth","cuisine":"Fondue","objectID":"24916","image":"https://www.opentable.com/img/restimages/24916.jpg","_geoloc":{"lat":32.754448,"lng":-97.331205},"name":"Simply Fondue - Ft Worth","neighborhood":"Fort Worth Downtown","paymentOptions":["AMEX","Discover","MasterCard","Visa"],"prices":"$31 to $50","rating":4.4,"reviews":1327},{"area":"Dallas - Fort Worth","city":"Arlington","cuisine":"Contemporary American","objectID":"140143","image":"https://www.opentable.com/img/restimages/140143.jpg","_geoloc":{"lat":32.76246,"lng":-97.067443},"name":"R Bar & Grill Arlington","neighborhood":"Arlington","paymentOptions":["AMEX","Discover","MasterCard","Visa"],"prices":"$30 and under","rating":3.9,"reviews":14},{"area":"Dallas - Fort Worth","city":"Dallas","cuisine":"American","objectID":"104986","image":"https://www.opentable.com/img/restimages/104986.jpg","_geoloc":{"lat":32.954268,"lng":-96.813603},"name":"Ivy Kitchen","neighborhood":"North Dallas / Addison","paymentOptions":["AMEX","MasterCard","Visa"],"prices":"$30 and under","rating":4.1,"reviews":153},{"area":"Dallas - Fort Worth","city":"Dallas","cuisine":"American","objectID":"101068","image":"https://www.opentable.com/img/restimages/101068.jpg","_geoloc":{"lat":32.893896,"lng":-96.802763},"name":"NHS Bar & Grill","neighborhood":"Preston Hollow","paymentOptions":["AMEX","Discover","MasterCard","Visa"],"prices":"$30 and under","rating":4.4,"reviews":246},{"area":"Dallas - Fort Worth","city":"Addison","cuisine":"Brazilian Steakhouse","objectID":"39355","image":"https://www.opentable.com/img/restimages/39355.jpg","_geoloc":{"lat":32.954314,"lng":-96.830165},"name":"Texas de Brazil - Addison","neighborhood":"North Dallas / Addison","paymentOptions":["AMEX","Discover","MasterCard","Visa"],"prices":"$31 to $50","rating":4.7,"reviews":451},{"area":"Dallas - Fort Worth","city":"Plano","cuisine":"Japanese","objectID":"87121","image":"https://www.opentable.com/img/restimages/87121.jpg","_geoloc":{"lat":33.080884,"lng":-96.822754},"name":"Benihana - Plano","neighborhood":"Plano","paymentOptions":["AMEX","Discover","MasterCard","Visa"],"prices":"$30 and under","rating":4.1,"reviews":642},{"area":"Dallas - Fort Worth","city":"Dallas","cuisine":"Sushi","objectID":"12637","image":"https://www.opentable.com/img/restimages/12637.jpg","_geoloc":{"lat":32.788969,"lng":-96.809437},"name":"Kenichi - Dallas","neighborhood":"Victory Park","paymentOptions":["AMEX","Discover","MasterCard","Visa"],"prices":"$31 to $50","rating":4.2,"reviews":690},{"area":"Dallas - Fort Worth","city":"Plano","cuisine":"American","objectID":"48736","image":"https://www.opentable.com/img/restimages/48736.jpg","_geoloc":{"lat":33.079994,"lng":-96.822965},"name":"Seasons 52 - Plano","neighborhood":"Plano","paymentOptions":["AMEX","Discover","MasterCard","Visa"],"prices":"$30 and under","rating":4.6,"reviews":3394},{"area":"Dallas - Fort Worth","city":"Dallas","cuisine":"Brazilian Steakhouse","objectID":"68527","image":"https://www.opentable.com/img/restimages/68527.jpg","_geoloc":{"lat":32.995502,"lng":-96.828029},"name":"Rafain Brazilian Steakhouse","neighborhood":"North Dallas / Addison","paymentOptions":["AMEX","Discover","MasterCard","Visa"],"prices":"$31 to $50","rating":4.2,"reviews":944},{"area":"Dallas - Fort Worth","city":"Southlake","cuisine":"Contemporary American","objectID":"106519","image":"https://www.opentable.com/img/restimages/106519.jpg","_geoloc":{"lat":32.942553,"lng":-97.133531},"name":"TruFire Kitchen & Bar - Southlake","neighborhood":"Southlake","paymentOptions":["AMEX","Discover","MasterCard","Visa"],"prices":"$30 and under","rating":4.4,"reviews":188},{"area":"Dallas - Fort Worth","city":"Addison","cuisine":"Mexican","objectID":"114391","image":"https://www.opentable.com/img/restimages/114391.jpg","_geoloc":{"lat":32.954166,"lng":-96.828124},"name":"Taco Diner Addison","neighborhood":"North Dallas / Addison","paymentOptions":["AMEX","Discover","MasterCard","Visa"],"prices":"$30 and under","rating":4.1,"reviews":37},{"area":"Dallas - Fort Worth","city":"Dallas","cuisine":"Contemporary American","objectID":"74404","image":"https://www.opentable.com/img/restimages/74404.jpg","_geoloc":{"lat":32.797222,"lng":-96.819352},"name":"Oak","neighborhood":"Design District","paymentOptions":["AMEX","Discover","MasterCard","Visa"],"prices":"$31 to $50","rating":4.1,"reviews":846},{"area":"Dallas - Fort Worth","city":"Dallas","cuisine":"Italian","objectID":"50413","image":"https://www.opentable.com/img/restimages/50413.jpg","_geoloc":{"lat":32.797989,"lng":-96.80131},"name":"Avanti Ristorante","neighborhood":"Uptown","paymentOptions":["AMEX","Discover","MasterCard","Visa"],"prices":"$31 to $50","rating":4.6,"reviews":344},{"area":"Dallas - Fort Worth","city":"Plano","cuisine":"American","objectID":"95089","image":"https://www.opentable.com/img/restimages/95089.jpg","_geoloc":{"lat":33.078034,"lng":-96.819348},"name":"Henry's Tavern - Plano","neighborhood":"Plano","paymentOptions":["AMEX","Discover","MasterCard","Visa"],"prices":"$30 and under","rating":4.2,"reviews":205},{"area":"Dallas - Fort Worth","city":"Dallas","cuisine":"Italian","objectID":"95425","image":"https://www.opentable.com/img/restimages/95425.jpg","_geoloc":{"lat":32.851453,"lng":-96.830275},"name":"Zio Cecio","neighborhood":"Park Cities","paymentOptions":["AMEX","Discover","MasterCard","Visa"],"prices":"$31 to $50","rating":4.4,"reviews":194},{"area":"Dallas - Fort Worth","city":"Forney","cuisine":"European","objectID":"106321","image":"https://www.opentable.com/img/restimages/106321.jpg","_geoloc":{"lat":32.747606,"lng":-96.472452},"name":"Crumbzz","neighborhood":"Garland","paymentOptions":["AMEX","Discover","MasterCard","Visa"],"prices":"$30 and under","rating":4.7,"reviews":15},{"area":"Dallas - Fort Worth","city":"Arlington","cuisine":"Italian","objectID":"55972","image":"https://www.opentable.com/img/restimages/55972.jpg","_geoloc":{"lat":32.765751,"lng":-97.09779},"name":"Piccolo Mondo","neighborhood":"Arlington","paymentOptions":["AMEX","Discover","MasterCard","Visa"],"prices":"$31 to $50","rating":4.6,"reviews":489},{"area":"Dallas - Fort Worth","city":"Dallas","cuisine":"Mexican","objectID":"71629","image":"https://www.opentable.com/img/restimages/71629.jpg","_geoloc":{"lat":32.781056,"lng":-96.796448},"name":"Wild Salsa","neighborhood":"Downtown","paymentOptions":["AMEX","Discover","MasterCard","Visa"],"prices":"$30 and under","rating":4.3,"reviews":351},{"area":"Dallas - Fort Worth","city":"Dallas","cuisine":"French","objectID":"107092","image":"https://www.opentable.com/img/restimages/107092.jpg","_geoloc":{"lat":32.822642,"lng":-96.790762},"name":"Le Bilboquet - Dallas","neighborhood":"Park Cities","paymentOptions":["AMEX","MasterCard","Visa"],"prices":"$31 to $50","rating":4.6,"reviews":365},{"area":"Dallas - Fort Worth","city":"Dallas","cuisine":"Japanese","objectID":"58471","image":"https://www.opentable.com/img/restimages/58471.jpg","_geoloc":{"lat":32.791838,"lng":-96.795988},"name":"TEI-AN","neighborhood":"Downtown","paymentOptions":["AMEX","MasterCard","Visa"],"prices":"$31 to $50","rating":4.6,"reviews":596},{"area":"Dallas - Fort Worth","city":"Dallas","cuisine":"American","objectID":"35530","image":"https://www.opentable.com/img/restimages/35530.jpg","_geoloc":{"lat":32.862653,"lng":-96.804706},"name":"Sevy's Grill","neighborhood":"Park Cities","paymentOptions":["AMEX","Discover","MasterCard","Visa"],"prices":"$31 to $50","rating":4.5,"reviews":685},{"area":"Dallas - Fort Worth","city":"Dallas","cuisine":"Japanese","objectID":"62146","image":"https://www.opentable.com/img/restimages/62146.jpg","_geoloc":{"lat":32.953176,"lng":-96.822736},"name":"Kobe Steaks - Dallas","neighborhood":"North Dallas / Addison","paymentOptions":["AMEX","Discover","MasterCard","Visa"],"prices":"$30 and under","rating":4.5,"reviews":221},{"area":"Dallas - Fort Worth","city":"Southlake","cuisine":"Japanese","objectID":"68245","image":"https://www.opentable.com/img/restimages/68245.jpg","_geoloc":{"lat":32.941011,"lng":-97.130179},"name":"Sushi Zushi of Southlake","neighborhood":"Southlake","paymentOptions":["AMEX","Discover","MasterCard","Visa"],"prices":"$30 and under","rating":4.3,"reviews":99},{"area":"Dallas - Fort Worth","city":"Plano","cuisine":"Barbecue","objectID":"102049","image":"https://www.opentable.com/img/restimages/102049.jpg","_geoloc":{"lat":33.076805,"lng":-96.820194},"name":"Kenny's Smoke House","neighborhood":"Plano","paymentOptions":["AMEX","Discover","MasterCard","Visa"],"prices":"$30 and under","rating":4.7,"reviews":467},{"area":"Dallas - Fort Worth","city":"Dallas","cuisine":"Mexican","objectID":"95206","image":"https://www.opentable.com/img/restimages/95206.jpg","_geoloc":{"lat":32.953941,"lng":-96.821958},"name":"Lazaranda Modern Kitchen & Tequila","neighborhood":"North Dallas / Addison","paymentOptions":["AMEX","Discover","MasterCard","Visa"],"prices":"$30 and under","rating":4.3,"reviews":124},{"area":"Dallas - Fort Worth","city":"Dallas","cuisine":"Brazilian Steakhouse","objectID":"39364","image":"https://www.opentable.com/img/restimages/39364.jpg","_geoloc":{"lat":32.801598,"lng":-96.806003},"name":"Texas de Brazil - Dallas","neighborhood":"Uptown","paymentOptions":["AMEX","Discover","MasterCard","Visa"],"prices":"$31 to $50","rating":4.6,"reviews":350},{"area":"Dallas - Fort Worth","city":"Plano","cuisine":"Japanese","objectID":"110911","image":"https://www.opentable.com/img/restimages/110911.jpg","_geoloc":{"lat":33.080032,"lng":-96.823689},"name":"RA Sushi Bar Restaurant - Plano","neighborhood":"Plano","paymentOptions":["AMEX","Discover","MasterCard","Visa"],"prices":"$30 and under","rating":4.2,"reviews":55},{"area":"Dallas - Fort Worth","city":"Dallas","cuisine":"Mediterranean","objectID":"113275","image":"https://www.opentable.com/img/restimages/113275.jpg","_geoloc":{"lat":32.77883,"lng":-96.82774},"name":"Souk at Trinity Groves","neighborhood":"Trinity Groves","paymentOptions":["AMEX","Discover","MasterCard","Visa"],"prices":"$30 and under","rating":4,"reviews":266},{"area":"Dallas - Fort Worth","city":"Dallas","cuisine":"American","objectID":"75358","image":"https://www.opentable.com/img/restimages/75358.jpg","_geoloc":{"lat":32.768003,"lng":-96.795749},"name":"The Cedars Social","neighborhood":"Downtown","paymentOptions":["AMEX","Discover","MasterCard","Visa"],"prices":"$30 and under","rating":4.2,"reviews":280},{"area":"Dallas - Fort Worth","city":"Dallas","cuisine":"Mexican","objectID":"58930","image":"https://www.opentable.com/img/restimages/58930.jpg","_geoloc":{"lat":32.816364,"lng":-96.792213},"name":"Komali Restaurant","neighborhood":"Uptown","paymentOptions":["AMEX","Discover","MasterCard","Visa"],"prices":"$30 and under","rating":4.6,"reviews":736},{"area":"Dallas - Fort Worth","city":"Dallas","cuisine":"Middle Eastern","objectID":"79933","image":"https://www.opentable.com/img/restimages/79933.jpg","_geoloc":{"lat":32.80715,"lng":-96.796208},"name":"Baboush","neighborhood":"Uptown","paymentOptions":["AMEX","Discover","MasterCard","Visa"],"prices":"$30 and under","rating":4.4,"reviews":154},{"area":"Dallas - Fort Worth","city":"Dallas","cuisine":"Southwest","objectID":"96604","image":"https://www.opentable.com/img/restimages/96604.jpg","_geoloc":{"lat":32.788445,"lng":-96.804449},"name":"Stampede 66","neighborhood":"Uptown","paymentOptions":["AMEX","Discover","MasterCard","Visa"],"prices":"$30 and under","rating":4.3,"reviews":1274},{"area":"Dallas - Fort Worth","city":"Dallas","cuisine":"Contemporary French / American","objectID":"148828","image":"https://www.opentable.com/img/restimages/148828.jpg","_geoloc":{"lat":32.791988,"lng":-96.794998},"name":"Proof & Pantry","neighborhood":"Uptown","paymentOptions":["AMEX","Discover","MasterCard","Visa"],"prices":"$30 and under","rating":4.3,"reviews":172},{"area":"Dallas - Fort Worth","city":"Dallas","cuisine":"Chinese","objectID":"76141","image":"https://www.opentable.com/img/restimages/76141.jpg","_geoloc":{"lat":32.806806,"lng":-96.799475},"name":"Howard Wang's Uptown China Brasserie","neighborhood":"Uptown","paymentOptions":["AMEX","Discover","MasterCard","Visa"],"prices":"$30 and under","rating":4.2,"reviews":143},{"area":"Dallas - Fort Worth","city":"Addison","cuisine":"Seafood","objectID":"66445","image":"https://www.opentable.com/img/restimages/66445.jpg","_geoloc":{"lat":32.953989,"lng":-96.832496},"name":"Remington's Seafood Grill","neighborhood":"North Dallas / Addison","paymentOptions":["AMEX","Discover","MasterCard","Visa"],"prices":"$30 and under","rating":4.5,"reviews":576},{"area":"Dallas - Fort Worth","city":"Dallas","cuisine":"Italian","objectID":"53425","image":"https://www.opentable.com/img/restimages/53425.jpg","_geoloc":{"lat":32.871955,"lng":-96.77072},"name":"Buca di Beppo - Park Lane","neighborhood":"Downtown","paymentOptions":["AMEX","Discover","MasterCard","Visa"],"prices":"$30 and under","rating":3.8,"reviews":458},{"area":"Dallas - Fort Worth","city":"Grapevine","cuisine":"Contemporary American","objectID":"71311","image":"https://www.opentable.com/img/restimages/71311.jpg","_geoloc":{"lat":32.927508,"lng":-97.078338},"name":"Winewood","neighborhood":"Grapevine","paymentOptions":["AMEX","Discover","MasterCard","Visa"],"prices":"$30 and under","rating":4.4,"reviews":994},{"area":"Dallas - Fort Worth","city":"Dallas","cuisine":"Contemporary American","objectID":"56605","image":"https://www.opentable.com/img/restimages/56605.jpg","_geoloc":{"lat":32.802663,"lng":-96.832262},"name":"Asador","neighborhood":"Downtown","paymentOptions":["AMEX","Discover","MasterCard","Visa"],"prices":"$30 and under","rating":4,"reviews":164},{"area":"Dallas - Fort Worth","city":"Plano","cuisine":"Italian","objectID":"15091","image":"https://www.opentable.com/img/restimages/15091.jpg","_geoloc":{"lat":33.027996,"lng":-96.829665},"name":"Maggiano's - Willow Bend","neighborhood":"Plano","paymentOptions":["AMEX","Discover","MasterCard","Visa"],"prices":"$30 and under","rating":4.4,"reviews":2521},{"area":"Dallas - Fort Worth","city":"Dallas","cuisine":"American","objectID":"3052","image":"https://www.opentable.com/img/restimages/3052.jpg","_geoloc":{"lat":32.7918,"lng":-96.8031},"name":"Sambuca - Dallas Uptown","neighborhood":"Uptown","paymentOptions":["AMEX","Discover","MasterCard","Visa"],"prices":"$30 and under","rating":4.1,"reviews":613},{"area":"Dallas - Fort Worth","city":"Dallas","cuisine":"Contemporary American","objectID":"57604","image":"https://www.opentable.com/img/restimages/57604.jpg","_geoloc":{"lat":32.780854,"lng":-96.798097},"name":"Zodiac at Neiman Marcus – Downtown Dallas","neighborhood":"Downtown","paymentOptions":["AMEX","MasterCard","Visa"],"prices":"$30 and under","rating":4.7,"reviews":245},{"area":"Dallas - Fort Worth","city":"Dallas","cuisine":"American","objectID":"57838","image":"https://www.opentable.com/img/restimages/57838.jpg","_geoloc":{"lat":32.791627,"lng":-96.805644},"name":"Saint Ann Restaurant and Bar","neighborhood":"Uptown","paymentOptions":["AMEX","Discover","MasterCard","Visa"],"prices":"$30 and under","rating":4.5,"reviews":641},{"area":"Dallas - Fort Worth","city":"Dallas","cuisine":"Japanese","objectID":"87097","image":"https://www.opentable.com/img/restimages/87097.jpg","_geoloc":{"lat":32.921509,"lng":-96.772427},"name":"Benihana - Dallas","neighborhood":"North Dallas / Addison","paymentOptions":["AMEX","Discover","MasterCard","Visa"],"prices":"$30 and under","rating":4.3,"reviews":630},{"area":"Dallas - Fort Worth","city":"Dallas","cuisine":"Contemporary American","objectID":"64330","image":"https://www.opentable.com/img/restimages/64330.jpg","_geoloc":{"lat":32.798929,"lng":-96.803516},"name":"Dream Cafe","neighborhood":"Uptown","paymentOptions":["AMEX","Discover","MasterCard","Visa"],"prices":"$30 and under","rating":3.9,"reviews":65},{"area":"Dallas - Fort Worth","city":"Dallas","cuisine":"Contemporary American","objectID":"14092","image":"https://www.opentable.com/img/restimages/14092.jpg","_geoloc":{"lat":32.780574,"lng":-96.799492},"name":"Dallas Fish Market","neighborhood":"Downtown","paymentOptions":["AMEX","Discover","MasterCard","Visa"],"prices":"$30 and under","rating":4.3,"reviews":931},{"area":"Dallas - Fort Worth","city":"Fort Worth","cuisine":"Southern","objectID":"30925","image":"https://www.opentable.com/img/restimages/30925.jpg","_geoloc":{"lat":32.748189,"lng":-97.327568},"name":"Cast Iron at the Omni Fort Worth","neighborhood":"Fort Worth Downtown","paymentOptions":["AMEX","Discover","MasterCard","Visa"],"prices":"$30 and under","rating":3.7,"reviews":229},{"area":"Dallas - Fort Worth","city":"Southlake","cuisine":"Italian","objectID":"53434","image":"https://www.opentable.com/img/restimages/53434.jpg","_geoloc":{"lat":32.942234,"lng":-97.109207},"name":"Buca di Beppo - Southlake","neighborhood":"Southlake","paymentOptions":["AMEX","Discover","MasterCard","Visa"],"prices":"$30 and under","rating":3.8,"reviews":516},{"area":"Dallas - Fort Worth","city":"Frisco","cuisine":"Sushi","objectID":"60337","image":"https://www.opentable.com/img/restimages/60337.jpg","_geoloc":{"lat":33.089561,"lng":-96.840406},"name":"Edoko Sushi","neighborhood":"Frisco","paymentOptions":["AMEX","Discover","MasterCard","Visa"],"prices":"$30 and under","rating":4.7,"reviews":324},{"area":"Dallas - Fort Worth","city":"Dallas","cuisine":"Italian","objectID":"50821","image":"https://www.opentable.com/img/restimages/50821.jpg","_geoloc":{"lat":32.951177,"lng":-96.820825},"name":"Kenny's Italian Kitchen","neighborhood":"North Dallas / Addison","paymentOptions":["AMEX","Discover","MasterCard","Visa"],"prices":"$30 and under","rating":4.6,"reviews":963},{"area":"Dallas - Fort Worth","city":"Dallas","cuisine":"Contemporary American","objectID":"72727","image":"https://www.opentable.com/img/restimages/72727.jpg","_geoloc":{"lat":32.775934,"lng":-96.803236},"name":"Texas Spice","neighborhood":"Downtown","paymentOptions":["AMEX","Discover","MasterCard","Visa"],"prices":"$30 and under","rating":4.2,"reviews":200},{"area":"Dallas - Fort Worth","city":"Plano","cuisine":"American","objectID":"47983","image":"https://www.opentable.com/img/restimages/47983.jpg","_geoloc":{"lat":33.077834,"lng":-96.822482},"name":"Artin's Grill","neighborhood":"Plano","paymentOptions":["AMEX","Discover","MasterCard","Visa"],"prices":"$30 and under","rating":4.5,"reviews":1316},{"area":"Dallas - Fort Worth","city":"Addison","cuisine":"Steak","objectID":"34510","image":"https://www.opentable.com/img/restimages/34510.jpg","_geoloc":{"lat":32.951534,"lng":-96.838999},"name":"Jaxx Steakhouse","neighborhood":"North Dallas / Addison","paymentOptions":["AMEX","Discover","MasterCard","Visa"],"prices":"$30 and under","rating":4.3,"reviews":319},{"area":"Dallas - Fort Worth","city":"Plano","cuisine":"Seafood","objectID":"40117","image":"https://www.opentable.com/img/restimages/40117.jpg","_geoloc":{"lat":33.040329,"lng":-96.828228},"name":"Roy's Plano","neighborhood":"Plano","paymentOptions":["AMEX","Discover","MasterCard","Visa"],"prices":"$31 to $50","rating":4.4,"reviews":705},{"area":"Dallas - Fort Worth","city":"Plano","cuisine":"Mediterranean","objectID":"36232","image":"https://www.opentable.com/img/restimages/36232.jpg","_geoloc":{"lat":33.055808,"lng":-96.795117},"name":"Ziziki's -  Plano","neighborhood":"Plano","paymentOptions":["AMEX","Discover","MasterCard","Visa"],"prices":"$30 and under","rating":4.6,"reviews":233},{"area":"Dallas - Fort Worth","city":"Dallas","cuisine":"American","objectID":"43753","image":"https://www.opentable.com/img/restimages/43753.jpg","_geoloc":{"lat":32.796964,"lng":-96.82015},"name":"Meddlesome Moth","neighborhood":"Design District","paymentOptions":["AMEX","Discover","MasterCard","Visa"],"prices":"$30 and under","rating":4.4,"reviews":1340},{"area":"Denver / Colorado","city":"Steamboat Springs","cuisine":"Scandinavian","objectID":"151336","image":"https://www.opentable.com/img/restimages/151336.jpg","_geoloc":{"lat":40.458123,"lng":-106.806262},"name":"Ragnars","neighborhood":"Steamboat Springs","paymentOptions":["AMEX","Discover","MasterCard","Visa"],"prices":"$50 and over","rating":4.3,"reviews":52},{"area":"Denver / Colorado","city":"Denver","cuisine":"Continental","objectID":"28852","image":"https://www.opentable.com/img/restimages/28852.jpg","_geoloc":{"lat":39.747901,"lng":-104.999132},"name":"TAG","neighborhood":"Downtown / LoDo","paymentOptions":["AMEX","Discover","MasterCard","Visa"],"prices":"$30 and under","rating":4.5,"reviews":2204},{"area":"Denver / Colorado","city":"Basalt","cuisine":"Mediterranean","objectID":"28843","image":"https://www.opentable.com/img/restimages/28843.jpg","_geoloc":{"lat":39.368736,"lng":-107.033265},"name":"Tempranillo","neighborhood":"Basalt","paymentOptions":["AMEX","MasterCard","Visa"],"prices":"$30 and under","rating":4.3,"reviews":156},{"area":"Denver / Colorado","city":"Denver","cuisine":"Japanese","objectID":"104002","image":"https://www.opentable.com/img/restimages/104002.jpg","_geoloc":{"lat":39.701888,"lng":-104.910978},"name":"Banzai Sushi","neighborhood":"Central","paymentOptions":["AMEX","Discover","MasterCard","Visa"],"prices":"$30 and under","rating":4.5,"reviews":112},{"area":"Denver / Colorado","city":"Denver","cuisine":"American","objectID":"118978","image":"https://www.opentable.com/img/restimages/118978.jpg","_geoloc":{"lat":39.678682,"lng":-104.973745},"name":"Atticus","neighborhood":"Central","paymentOptions":["AMEX","Discover","MasterCard","Visa"],"prices":"$30 and under","rating":4.2,"reviews":240},{"area":"Denver / Colorado","city":"Boulder","cuisine":"Gastro Pub","objectID":"111205","image":"https://www.opentable.com/img/restimages/111205.jpg","_geoloc":{"lat":40.017907,"lng":-105.278544},"name":"Bramble & Hare","neighborhood":"Boulder","paymentOptions":["AMEX","Discover","MasterCard","Visa"],"prices":"$31 to $50","rating":4.3,"reviews":157},{"area":"Denver / Colorado","city":"Centennial","cuisine":"Tapas / Small Plates","objectID":"108283","image":"https://www.opentable.com/img/restimages/108283.jpg","_geoloc":{"lat":39.567391,"lng":-104.923029},"name":"Tapas D Jerez","neighborhood":"Centennial","paymentOptions":["Discover","MasterCard","Visa"],"prices":"$30 and under","rating":3.9,"reviews":239},{"area":"Denver / Colorado","city":"Denver","cuisine":"Japanese","objectID":"26170","image":"https://www.opentable.com/img/restimages/26170.jpg","_geoloc":{"lat":39.689564,"lng":-104.980765},"name":"Izakaya Den","neighborhood":"Wash Park","paymentOptions":["AMEX","Discover","MasterCard","Visa"],"prices":"$31 to $50","rating":4.7,"reviews":789},{"area":"Denver / Colorado","city":"Denver","cuisine":"American","objectID":"30541","image":"https://www.opentable.com/img/restimages/30541.jpg","_geoloc":{"lat":39.715826,"lng":-104.987133},"name":"Beatrice & Woodsley","neighborhood":"Baker","paymentOptions":["AMEX","MasterCard","Visa"],"prices":"$31 to $50","rating":4.4,"reviews":1369},{"area":"Denver / Colorado","city":"Denver","cuisine":"American","objectID":"16057","image":"https://www.opentable.com/img/restimages/16057.jpg","_geoloc":{"lat":39.725742,"lng":-104.974029},"name":"Table 6","neighborhood":"Cherry Creek","paymentOptions":["AMEX","MasterCard","Visa"],"prices":"$30 and under","rating":4.5,"reviews":1187},{"area":"Denver / Colorado","city":"Winter Park","cuisine":"American","objectID":"50350","image":"https://www.opentable.com/img/restimages/50350.jpg","_geoloc":{"lat":39.917055,"lng":-105.783714},"name":"Deno's Mountain Bistro","neighborhood":"Winter Park","paymentOptions":["Discover","MasterCard","Visa"],"prices":"$30 and under","rating":4.2,"reviews":265},{"area":"Denver / Colorado","city":"Breckenridge","cuisine":"Global, International","objectID":"54631","image":"https://www.opentable.com/img/restimages/54631.jpg","_geoloc":{"lat":39.479766,"lng":-106.043412},"name":"Ember","neighborhood":"Breckenridge","paymentOptions":["AMEX","Discover","MasterCard","Visa"],"prices":"$30 and under","rating":4.3,"reviews":827},{"area":"Denver / Colorado","city":"Denver","cuisine":"Cajun","objectID":"48472","image":"https://www.opentable.com/img/restimages/48472.jpg","_geoloc":{"lat":39.743274,"lng":-104.973784},"name":"Gumbos","neighborhood":"Uptown","paymentOptions":["AMEX","Discover","MasterCard","Visa"],"prices":"$30 and under","rating":4.6,"reviews":285},{"area":"Denver / Colorado","city":"Denver","cuisine":"Sushi","objectID":"94621","image":"https://www.opentable.com/img/restimages/94621.jpg","_geoloc":{"lat":39.749671,"lng":-104.999844},"name":"Hapa Sushi Grill and Sake Bar Lodo","neighborhood":"Downtown / LoDo","paymentOptions":["AMEX","Discover","MasterCard","Visa"],"prices":"$30 and under","rating":4.3,"reviews":219},{"area":"Denver / Colorado","city":"Steamboat Springs","cuisine":"Contemporary American","objectID":"145798","image":"https://www.opentable.com/img/restimages/145798.jpg","_geoloc":{"lat":40.424933,"lng":-106.81532},"name":"Haymaker Patio & Grill","neighborhood":"Steamboat Springs","paymentOptions":["AMEX","Discover","MasterCard","Visa"],"prices":"$50 and over","rating":4.5,"reviews":13},{"area":"Denver / Colorado","city":"Denver","cuisine":"Italian","objectID":"16060","image":"https://www.opentable.com/img/restimages/16060.jpg","_geoloc":{"lat":39.714864,"lng":-104.981514},"name":"Carmine's On Penn","neighborhood":"Wash Park","paymentOptions":["AMEX","Discover","MasterCard","Visa"],"prices":"$30 and under","rating":4.6,"reviews":1368},{"area":"Denver / Colorado","city":"Denver","cuisine":"Contemporary American","objectID":"28291","image":"https://www.opentable.com/img/restimages/28291.jpg","_geoloc":{"lat":39.718043,"lng":-104.953257},"name":"Kona Grill - Denver","neighborhood":"Cherry Creek","paymentOptions":["AMEX","Discover","MasterCard","Visa"],"prices":"$30 and under","rating":4.2,"reviews":334},{"area":"Denver / Colorado","city":"Westminster","cuisine":"Southwest","objectID":"90778","image":"https://www.opentable.com/img/restimages/90778.jpg","_geoloc":{"lat":39.890821,"lng":-105.064511},"name":"Kachina Southwestern Grill","neighborhood":"Westminster","paymentOptions":["AMEX","Discover","MasterCard","Visa"],"prices":"$30 and under","rating":4.4,"reviews":516},{"area":"Denver / Colorado","city":"Lakewood","cuisine":"Indian","objectID":"46093","image":"https://www.opentable.com/img/restimages/46093.jpg","_geoloc":{"lat":39.708392,"lng":-105.076841},"name":"Little India Restaurant - Belmar","neighborhood":"Lakewood","paymentOptions":["AMEX","Discover","MasterCard","Visa"],"prices":"$30 and under","rating":4.4,"reviews":145},{"area":"Denver / Colorado","city":"Durango","cuisine":"Sushi","objectID":"24268","image":"https://www.opentable.com/img/restimages/24268.jpg","_geoloc":{"lat":37.26999,"lng":-107.881061},"name":"East by Southwest","neighborhood":"Durango","paymentOptions":["AMEX","Discover","MasterCard","Visa"],"prices":"$30 and under","rating":4.3,"reviews":322},{"area":"Denver / Colorado","city":"Denver","cuisine":"Steakhouse","objectID":"17269","image":"https://www.opentable.com/img/restimages/17269.jpg","_geoloc":{"lat":39.749822,"lng":-104.991428},"name":"ELWAY'S Downtown","neighborhood":"Downtown / LoDo","paymentOptions":["AMEX","Discover","MasterCard","Visa"],"prices":"$50 and over","rating":4.2,"reviews":2008},{"area":"Denver / Colorado","city":"Steamboat Springs","cuisine":"Southern","objectID":"144592","image":"https://www.opentable.com/img/restimages/144592.jpg","_geoloc":{"lat":40.483867,"lng":-106.83124},"name":"Low Country Kitchen","neighborhood":"Steamboat Springs","paymentOptions":["AMEX","Discover","MasterCard","Visa"],"prices":"$30 and under","rating":4.5,"reviews":190},{"area":"Denver / Colorado","city":"Niwot","cuisine":"French","objectID":"11176","image":"https://www.opentable.com/img/restimages/11176.jpg","_geoloc":{"lat":40.103006,"lng":-105.171769},"name":"Colterra","neighborhood":"Boulder","paymentOptions":["AMEX","Discover","MasterCard","Visa"],"prices":"$30 and under","rating":4.6,"reviews":1991},{"area":"Denver / Colorado","city":"Estes Park","cuisine":"Continental","objectID":"45892","image":"https://www.opentable.com/img/restimages/45892.jpg","_geoloc":{"lat":40.386123,"lng":-105.522469},"name":"Twin Owls Steakhouse","neighborhood":"Estes Park","paymentOptions":["AMEX","Discover","MasterCard","Visa"],"prices":"$30 and under","rating":4.5,"reviews":1200},{"area":"Denver / Colorado","city":"Denver","cuisine":"Italian","objectID":"23284","image":"https://www.opentable.com/img/restimages/23284.jpg","_geoloc":{"lat":39.77679,"lng":-105.044277},"name":"Firenze a Tavola","neighborhood":"Highlands","paymentOptions":["AMEX","MasterCard","Visa"],"prices":"$30 and under","rating":4.4,"reviews":879},{"area":"Denver / Colorado","city":"Avon","cuisine":"American","objectID":"1467","image":"https://www.opentable.com/img/restimages/1467.jpg","_geoloc":{"lat":39.630878,"lng":-106.52176},"name":"Beano's Cabin","neighborhood":"Avon","paymentOptions":["AMEX","Discover","MasterCard","Visa"],"prices":"$50 and over","rating":4.5,"reviews":546},{"area":"Denver / Colorado","city":"Breckenridge","cuisine":"Italian","objectID":"8107","image":"https://www.opentable.com/img/restimages/8107.jpg","_geoloc":{"lat":39.484706,"lng":-106.046204},"name":"Blue River Bistro","neighborhood":"Breckenridge","paymentOptions":["AMEX","Discover","MasterCard","Visa"],"prices":"$30 and under","rating":4.5,"reviews":798},{"area":"Denver / Colorado","city":"Vail","cuisine":"Contemporary American","objectID":"49477","image":"https://www.opentable.com/img/restimages/49477.jpg","_geoloc":{"lat":39.642146,"lng":-106.375092},"name":"Bol Restaurant","neighborhood":"Vail","paymentOptions":["AMEX","MasterCard","Visa"],"prices":"$30 and under","rating":4.3,"reviews":165},{"area":"Denver / Colorado","city":"Denver","cuisine":"American","objectID":"150205","image":"https://www.opentable.com/img/restimages/150205.jpg","_geoloc":{"lat":39.753122,"lng":-105.000144},"name":"Mercantile Dining and Provision","neighborhood":"Downtown / LoDo","paymentOptions":["AMEX","Discover","MasterCard","Visa"],"prices":"$30 and under","rating":4.6,"reviews":430},{"area":"Denver / Colorado","city":"Colorado Springs","cuisine":"Mexican / Southwestern","objectID":"12373","image":"https://www.opentable.com/img/restimages/12373.jpg","_geoloc":{"lat":38.837031,"lng":-104.823333},"name":"Jose Muldoon's","neighborhood":"Colorado Springs","paymentOptions":["AMEX","Discover","MasterCard","Visa"],"prices":"$30 and under","rating":4.3,"reviews":123},{"area":"Denver / Colorado","city":"Denver","cuisine":"Japanese","objectID":"105823","image":"https://www.opentable.com/img/restimages/105823.jpg","_geoloc":{"lat":39.689565,"lng":-104.980765},"name":"Sushi Den","neighborhood":"Wash Park","paymentOptions":["AMEX","Discover","MasterCard","Visa"],"prices":"$50 and over","rating":4.5,"reviews":14},{"area":"Denver / Colorado","city":"Vail","cuisine":"Contemporary American","objectID":"4544","image":"https://www.opentable.com/img/restimages/4544.jpg","_geoloc":{"lat":39.642,"lng":-106.372},"name":"Terra Bistro","neighborhood":"Vail","paymentOptions":["AMEX","Discover","MasterCard","Visa"],"prices":"$31 to $50","rating":4.4,"reviews":823},{"area":"Denver / Colorado","city":"Broomfield","cuisine":"Contemporary American","objectID":"2879","image":"https://www.opentable.com/img/restimages/2879.jpg","_geoloc":{"lat":39.9268,"lng":-105.1307},"name":"Flatz","neighborhood":"Broomfield","paymentOptions":["AMEX","Discover","MasterCard","Visa"],"prices":"$30 and under","rating":4.3,"reviews":244},{"area":"Denver / Colorado","city":"Keystone","cuisine":"American","objectID":"88474","image":"https://www.opentable.com/img/restimages/88474.jpg","_geoloc":{"lat":39.607284,"lng":-105.943813},"name":"Keystone Ranch Restaurant","neighborhood":"Keystone","paymentOptions":["AMEX","Discover","MasterCard","Visa"],"prices":"$31 to $50","rating":4.7,"reviews":222},{"area":"Denver / Colorado","city":"Broomfield","cuisine":"American","objectID":"5178","image":"https://www.opentable.com/img/restimages/5178.jpg","_geoloc":{"lat":39.929954,"lng":-105.130879},"name":"Village Tavern Broomfield","neighborhood":"Broomfield","paymentOptions":["AMEX","Discover","MasterCard","Visa"],"prices":"$30 and under","rating":4.2,"reviews":764},{"area":"Denver / Colorado","city":"Denver","cuisine":"Tapas / Small Plates","objectID":"149308","image":"https://www.opentable.com/img/restimages/149308.jpg","_geoloc":{"lat":39.731252,"lng":-104.986515},"name":"The 9th Door - Beauvallon","neighborhood":"Central","paymentOptions":["AMEX","Discover","MasterCard","Visa"],"prices":"$30 and under","rating":4.2,"reviews":82},{"area":"Denver / Colorado","city":"Colorado Springs","cuisine":"American","objectID":"95374","image":"https://www.opentable.com/img/restimages/95374.jpg","_geoloc":{"lat":38.791368,"lng":-104.848975},"name":"Lake Terrace - The Broadmoor","neighborhood":"Colorado Springs","paymentOptions":["AMEX","Discover","MasterCard","Visa"],"prices":"$50 and over","rating":4.8,"reviews":297},{"area":"Denver / Colorado","city":"Denver","cuisine":"Contemporary American","objectID":"147433","image":"https://www.opentable.com/img/restimages/147433.jpg","_geoloc":{"lat":39.74613,"lng":-104.998338},"name":"The Nickel - Hotel Teatro","neighborhood":"Downtown / LoDo","paymentOptions":["AMEX","Discover","MasterCard","Visa"],"prices":"$31 to $50","rating":4,"reviews":173},{"area":"Denver / Colorado","city":"Denver","cuisine":"Contemporary American","objectID":"151066","image":"https://www.opentable.com/img/restimages/151066.jpg","_geoloc":{"lat":39.764238,"lng":-104.978479},"name":"The Populist","neighborhood":"River North (Denver)","paymentOptions":["AMEX","MasterCard","Visa"],"prices":"$31 to $50","rating":4.4,"reviews":67},{"area":"Denver / Colorado","city":"Morrison","cuisine":"Steakhouse","objectID":"3730","image":"https://www.opentable.com/img/restimages/3730.jpg","_geoloc":{"lat":39.628112,"lng":-105.193222},"name":"The Fort","neighborhood":"Morrison","paymentOptions":["AMEX","Discover","MasterCard","Visa"],"prices":"$31 to $50","rating":4.5,"reviews":4191},{"area":"Denver / Colorado","city":"Boulder","cuisine":"Provencal","objectID":"3981","image":"https://www.opentable.com/img/restimages/3981.jpg","_geoloc":{"lat":40.0195,"lng":-105.2715},"name":"Mateo","neighborhood":"Boulder","paymentOptions":["AMEX","Discover","MasterCard","Visa"],"prices":"$30 and under","rating":4.4,"reviews":651},{"area":"Denver / Colorado","city":"Boulder","cuisine":"Steakhouse","objectID":"4155","image":"https://www.opentable.com/img/restimages/4155.jpg","_geoloc":{"lat":40.0161,"lng":-105.2833},"name":"Boulder ChopHouse & Tavern","neighborhood":"Boulder","paymentOptions":["AMEX","Discover","MasterCard","Visa"],"prices":"$31 to $50","rating":4.3,"reviews":1091},{"area":"Denver / Colorado","city":"Boulder","cuisine":"American","objectID":"4563","image":"https://www.opentable.com/img/restimages/4563.jpg","_geoloc":{"lat":40.034586,"lng":-105.254161},"name":"Boulder Cork","neighborhood":"Boulder","paymentOptions":["AMEX","Discover","MasterCard","Visa"],"prices":"$30 and under","rating":4.4,"reviews":1102},{"area":"Denver / Colorado","city":"Vail","cuisine":"Contemporary American","objectID":"71968","image":"https://www.opentable.com/img/restimages/71968.jpg","_geoloc":{"lat":39.640263,"lng":-106.374195},"name":"Game Creek Restaurant","neighborhood":"Vail","paymentOptions":["AMEX","Discover","MasterCard","Visa"],"prices":"$50 and over","rating":4.6,"reviews":241},{"area":"Denver / Colorado","city":"Keystone","cuisine":"Fondue","objectID":"88492","image":"https://www.opentable.com/img/restimages/88492.jpg","_geoloc":{"lat":39.599751,"lng":-105.991208},"name":"Der Fondue Chessel","neighborhood":"Keystone","paymentOptions":["AMEX","Discover","MasterCard","Visa"],"prices":"$50 and over","rating":3.9,"reviews":235},{"area":"Denver / Colorado","city":"Vail","cuisine":"American","objectID":"2636","image":"https://www.opentable.com/img/restimages/2636.jpg","_geoloc":{"lat":39.630984,"lng":-106.412643},"name":"Sweet Basil","neighborhood":"Vail","paymentOptions":["AMEX","Discover","MasterCard","Visa"],"prices":"$31 to $50","rating":4.5,"reviews":1716},{"area":"Denver / Colorado","city":"Denver","cuisine":"Steakhouse","objectID":"4876","image":"https://www.opentable.com/img/restimages/4876.jpg","_geoloc":{"lat":39.754826,"lng":-104.997423},"name":"Denver Chophouse","neighborhood":"Downtown / LoDo","paymentOptions":["AMEX","Discover","MasterCard","Visa"],"prices":"$31 to $50","rating":4.4,"reviews":2660},{"area":"Denver / Colorado","city":"Steamboat Springs","cuisine":"Italian","objectID":"151342","image":"https://www.opentable.com/img/restimages/151342.jpg","_geoloc":{"lat":40.458123,"lng":-106.806262},"name":"Four Points","neighborhood":"Steamboat Springs","paymentOptions":["AMEX","Discover","MasterCard","Visa"],"prices":"$50 and over","rating":4.7,"reviews":37},{"area":"Denver / Colorado","city":"Avon","cuisine":"American","objectID":"1357","image":"https://www.opentable.com/img/restimages/1357.jpg","_geoloc":{"lat":39.605334,"lng":-106.509345},"name":"SaddleRidge","neighborhood":"Beaver Creek","paymentOptions":["AMEX","Discover","MasterCard","Visa"],"prices":"$50 and over","rating":4.3,"reviews":101},{"area":"Denver / Colorado","city":"Denver","cuisine":"American","objectID":"17158","image":"https://www.opentable.com/img/restimages/17158.jpg","_geoloc":{"lat":39.744845,"lng":-104.997886},"name":"Limelight Supper Club & Lounge","neighborhood":"Downtown / LoDo","paymentOptions":["AMEX","Discover","MasterCard","Visa"],"prices":"$30 and under","rating":3.9,"reviews":1465},{"area":"Denver / Colorado","city":"Fort Collins","cuisine":"Mexican","objectID":"148765","image":"https://www.opentable.com/img/restimages/148765.jpg","_geoloc":{"lat":40.586729,"lng":-105.078145},"name":"Rio Grande - Ft. Collins","neighborhood":"Fort Collins","paymentOptions":["AMEX","Discover","MasterCard","Visa"],"prices":"$30 and under","rating":4.5,"reviews":46},{"area":"Denver / Colorado","city":"Denver","cuisine":"Gastro Pub","objectID":"140125","image":"https://www.opentable.com/img/restimages/140125.jpg","_geoloc":{"lat":39.751939,"lng":-105.000872},"name":"Thirsty Lion - Denver","neighborhood":"Downtown / LoDo","paymentOptions":["AMEX","Discover","MasterCard","Visa"],"prices":"$30 and under","rating":4.2,"reviews":227},{"area":"Denver / Colorado","city":"Durango","cuisine":"American","objectID":"145435","image":"https://www.opentable.com/img/restimages/145435.jpg","_geoloc":{"lat":37.274092,"lng":-107.880919},"name":"El Moro Spirits & Tavern","neighborhood":"Durango","paymentOptions":["AMEX","Discover","MasterCard","Visa"],"prices":"$30 and under","rating":4.4,"reviews":65},{"area":"Denver / Colorado","city":"Avon","cuisine":"Belgian","objectID":"76252","image":"https://www.opentable.com/img/restimages/76252.jpg","_geoloc":{"lat":39.629831,"lng":-106.524115},"name":"Mirabelle Restaurant","neighborhood":"Beaver Creek","paymentOptions":["AMEX","Discover","MasterCard","Visa"],"prices":"$50 and over","rating":4.4,"reviews":255},{"area":"Denver / Colorado","city":"Breckenridge","cuisine":"Steak","objectID":"22714","image":"https://www.opentable.com/img/restimages/22714.jpg","_geoloc":{"lat":39.482044,"lng":-106.045437},"name":"Briar Rose Chophouse & Saloon","neighborhood":"Breckenridge","paymentOptions":["AMEX","Discover","MasterCard","Visa"],"prices":"$50 and over","rating":4.5,"reviews":724},{"area":"Denver / Colorado","city":"Denver","cuisine":"Steak","objectID":"3463","image":"https://www.opentable.com/img/restimages/3463.jpg","_geoloc":{"lat":39.7434,"lng":-104.9875},"name":"Ship Tavern at the Brown Palace","neighborhood":"Downtown / LoDo","paymentOptions":["AMEX","Discover","MasterCard","Visa"],"prices":"$30 and under","rating":4,"reviews":671},{"area":"Denver / Colorado","city":"Vail","cuisine":"French American","objectID":"3086","image":"https://www.opentable.com/img/restimages/3086.jpg","_geoloc":{"lat":39.64236,"lng":-106.378216},"name":"Kelly Liken","neighborhood":"Vail","paymentOptions":["AMEX","Discover","MasterCard","Visa"],"prices":"$31 to $50","rating":4.3,"reviews":58},{"area":"Denver / Colorado","city":"Vail","cuisine":"Contemporary American","objectID":"255","image":"https://www.opentable.com/img/restimages/255.jpg","_geoloc":{"lat":39.639539,"lng":-106.37007},"name":"Larkspur Restaurant & Bar","neighborhood":"Vail","paymentOptions":["AMEX","Discover","MasterCard","Visa"],"prices":"$30 and under","rating":4.5,"reviews":498},{"area":"Denver / Colorado","city":"Keystone","cuisine":"Contemporary European","objectID":"88480","image":"https://www.opentable.com/img/restimages/88480.jpg","_geoloc":{"lat":39.607905,"lng":-105.944038},"name":"Alpenglow Stube","neighborhood":"Keystone","paymentOptions":["AMEX","Discover","MasterCard","Visa"],"prices":"$50 and over","rating":4.6,"reviews":314},{"area":"Denver / Colorado","city":"Denver","cuisine":"American","objectID":"6832","image":"https://www.opentable.com/img/restimages/6832.jpg","_geoloc":{"lat":39.624198,"lng":-104.894218},"name":"Great Northern","neighborhood":"Tech Center / Greenwood Village","paymentOptions":["AMEX","Discover","MasterCard","Visa"],"prices":"$30 and under","rating":4,"reviews":664},{"area":"Denver / Colorado","city":"Denver","cuisine":"Contemporary American","objectID":"7398","image":"https://www.opentable.com/img/restimages/7398.jpg","_geoloc":{"lat":39.737809,"lng":-104.988866},"name":"Palettes at the Denver Art Museum","neighborhood":"Downtown / LoDo","paymentOptions":["AMEX","MasterCard","Visa"],"prices":"$30 and under","rating":4.6,"reviews":1357},{"area":"Denver / Colorado","city":"Denver","cuisine":"Steakhouse","objectID":"2709","image":"https://www.opentable.com/img/restimages/2709.jpg","_geoloc":{"lat":39.7477,"lng":-104.9992},"name":"The Capital Grille - Denver","neighborhood":"Downtown / LoDo","paymentOptions":["AMEX","Discover","MasterCard","Visa"],"prices":"$50 and over","rating":4.6,"reviews":2010},{"area":"Denver / Colorado","city":"Denver","cuisine":"Steakhouse","objectID":"3116","image":"https://www.opentable.com/img/restimages/3116.jpg","_geoloc":{"lat":39.7529,"lng":-104.9996},"name":"Morton's The Steakhouse - Denver","neighborhood":"Downtown / LoDo","paymentOptions":["AMEX","Discover","MasterCard","Visa"],"prices":"$50 and over","rating":4.2,"reviews":993},{"area":"Denver / Colorado","city":"Steamboat Springs","cuisine":"American","objectID":"151339","image":"https://www.opentable.com/img/restimages/151339.jpg","_geoloc":{"lat":40.458123,"lng":-106.806262},"name":"Western BBQ","neighborhood":"Steamboat Springs","paymentOptions":["AMEX","Discover","MasterCard","Visa"],"prices":"$31 to $50","rating":4.1,"reviews":35},{"area":"Denver / Colorado","city":"Denver","cuisine":"Italian","objectID":"151966","image":"https://www.opentable.com/img/restimages/151966.jpg","_geoloc":{"lat":39.719029,"lng":-104.896957},"name":"Cafe Mercato","neighborhood":"Cherry Creek","paymentOptions":["AMEX","MasterCard","Visa"],"prices":"$31 to $50","rating":4.1,"reviews":174},{"area":"Denver / Colorado","city":"Centennial","cuisine":"Hibachi","objectID":"108670","image":"https://www.opentable.com/img/restimages/108670.jpg","_geoloc":{"lat":39.594453,"lng":-104.867384},"name":"Volcano Asian Cuisine","neighborhood":"Centennial","paymentOptions":["AMEX","Discover","MasterCard","Visa"],"prices":"$30 and under","rating":3.6,"reviews":44},